address,latitude,longitude,geopoint
591 S FOURTH ST,35.131049,-90.050647,"35.131049, -90.050647"
0 FARROW,35.114072,-90.059178,"35.114072, -90.059178"
509 E OLIVE AVE,35.109912,-90.045373,"35.109912, -90.045373"
730 E ROANOKE,35.110319,-90.038097,"35.110319, -90.038097"
926 WOODLAWN,35.16622185,-90.03304681,"35.16622185, -90.03304681"
714 S PENDLETON,35.11251303,-89.96985823,"35.11251303, -89.96985823"
2280 NORMAN,35.17250538,-89.98120653,"35.17250538, -89.98120653"
2217 HUNTER,35.169552,-89.983355,"35.169552, -89.983355"
1539 POPE,35.17447974,-89.9568417,"35.17447974, -89.9568417"
100 DEMPSTER E.,35.085855,-90.059656,"35.085855, -90.059656"
1595 S PRESCOTT ST,35.087987,-89.950203,"35.087987, -89.950203"
2383 PECAN CL,35.081616,-89.983413,"35.081616, -89.983413"
1059 ETHEL,35.107387,-89.983593,"35.107387, -89.983593"
3691 STEELE ST,35.226313,-90.015133,"35.226313, -90.015133"
0 CHANDLER ST,35.211877,-89.991387,"35.211877, -89.991387"
0 HORNBEAM,35.208766,-89.974978,"35.208766, -89.974978"
3873 EAGLE NEST,35.252692,-89.93488,"35.252692, -89.93488"
408 TRIGG E.,35.112537,-90.048729,"35.112537, -90.048729"
1144 DECATUR ST,35.171326,-90.023571,"35.171326, -90.023571"
499 WICKS AVE,35.121163,-90.045404,"35.121163, -90.045404"
1413 WOODBINE ST,35.107972,-90.022219,"35.107972, -90.022219"
500 PLUM AVE,35.181389,-90.03972,"35.181389, -90.03972"
2340 GOLDEN,35.173241,-89.979159,"35.173241, -89.979159"
0 E ALICE AVE,35.094554,-90.034133,"35.094554, -90.034133"
2050 FARRINGTON,35.091673,-90.074213,"35.091673, -90.074213"
139 W MCKELLAR AVE,35.089324,-90.067648,"35.089324, -90.067648"
1460 ELOISE,35.086355,-90.014233,"35.086355, -90.014233"
4439 SUNNY VIEW DR,35.246905,-89.979644,"35.246905, -89.979644"
2797 WOODLAWN,35.201893,-89.997822,"35.201893, -89.997822"
0 AMERICAN WAY,35.076547,-89.921958,"35.076547, -89.921958"
46 BISCAYNE RD,35.062208,-90.065433,"35.062208, -90.065433"
MANSON RD,35.01115,-90.089655,"35.011150, -90.089655"
3393 FELTON RD,35.209057,-89.950256,"35.209057, -89.950256"
0 KIRBY-WHITTEN RD,35.242369,-89.83788,"35.242369, -89.83788"
337 E GASTON,35.11759205,-90.05091778,"35.11759205, -90.05091778"
661 JENNETTE PL,35.118271,-90.040097,"35.118271, -90.040097"
1079 N DUNLAP ST,35.17014,-90.02953,"35.170140, -90.029530"
1554 S MCMILLAN ST,35.104658,-90.042504,"35.104658, -90.042504"
191 VAAL,35.09822,-90.069149,"35.09822, -90.069149"
0 MARBLE,35.172973,-90.033824,"35.172973, -90.033824"
1496 MAPLEWOOD,35.177088,-89.978547,"35.177088, -89.978547"
1467 GOLD AVE,35.103482,-90.013801,"35.103482, -90.013801"
256 W DAVANT AVE,35.089254,-90.071436,"35.089254, -90.071436"
0 E MALLORY,35.08633475,-90.0611755,"35.08633475, -90.0611755"
922 JOEL,35.220973,-90.033477,"35.220973, -90.033477"
4440 BEACON HILL,35.246959,-89.977291,"35.246959, -89.977291"
0 RANGE LINE,35.22883,-89.97517,"35.22883, -89.97517"
3038 S GREEN RD,35.06578,-90.084815,"35.065780, -90.084815"
548 W HARAHAN RD,35.062935,-90.082441,"35.062935, -90.082441"
763 HARAHAN RD,35.062511,-90.089476,"35.062511, -90.089476"
0 HONDURAS,35.014705,-90.075432,"35.014705, -90.075432"
114 E UTAH,35.113339,-90.058544,"35.113339, -90.058544"
1036 ROZELLE ST,35.117552,-90.006062,"35.117552, -90.006062"
240 MODDER,35.098016,-90.070845,"35.098016, -90.070845"
3274 HENRY,35.160523,-89.951496,"35.160523, -89.951496"
205 FAIRVIEW DR,35.087817,-90.069804,"35.087817, -90.069804"
136 W NORWOOD,35.091713,-90.067451,"35.091713, -90.067451"
0 POPPEN,35.098774,-89.960341,"35.098774, -89.960341"
4550 WHITE OWL,35.24996085,-89.93348918,"35.24996085, -89.93348918"
3882 EAGLE NEST,35.25250695,-89.93443912,"35.25250695, -89.93443912"
1347 LATHAM,35.110601,-90.052463,"35.110601, -90.052463"
326 E CAMBRIDGE AVE,35.113524,-90.051317,"35.113524, -90.051317"
1128 JAMES ST,35.115916,-90.022672,"35.115916, -90.022672"
1597 CAMERON ST,35.103547,-90.049666,"35.103547, -90.049666"
1587 S ORLEANS ST,35.103693,-90.040966,"35.103693, -90.040966"
1496 DAVIS ST,35.177356,-89.988521,"35.177356, -89.988521"
2192 E CURRY AVE,35.180266,-89.983834,"35.180266, -89.983834"
1342 STANDRIDGE ST,35.172559,-89.971633,"35.172559, -89.971633"
0 SUNSET,35.174265,-89.959089,"35.174265, -89.959089"
0 FARMER,35.10512,-89.990754,"35.10512, -89.990754"
1953 S BELMAR,35.093981,-90.050718,"35.093981, -90.050718"
137 W MALLORY,35.08642487,-90.06734501,"35.08642487, -90.06734501"
0 SYBIL,35.01619351,-89.94773468,"35.01619351, -89.94773468"
880 W LITTLE WEAVER,35.055205,-90.0933,"35.055205, -90.0933"
0 WHITEHAVEN LN,35.017202,-90.040477,"35.017202, -90.040477"
0 PITTMAN,35.01704,-90.11555,"35.01704, -90.11555"
0 DILLARD,35.211955,-89.946894,"35.211955, -89.946894"
342 CAMBRIDGE,35.11364,-90.05093,"35.11364, -90.05093"
0 W UTAH AVE,35.113357,-90.07193,"35.113357, -90.07193"
0 RICHMOND,35.110631,-90.042974,"35.110631, -90.042974"
817 E BULLINGTON AVE,35.108769,-90.035402,"35.108769, -90.035402"
1171 DUNNAVANT ST,35.11462,-90.01604,"35.11462, -90.01604"
2655 SPOTTSWOOD AVE,35.113932,-89.973552,"35.113932, -89.973552"
1473 WEBB ST,35.106748,-90.038769,"35.106748, -90.038769"
0 PLEASANT CV,35.161487,-89.929277,"35.161487, -89.929277"
0 MCLEAN,35.16889139,-89.99694956,"35.16889139, -89.99694956"
2409 HUNTER AVE,35.169338,-89.976859,"35.169338, -89.976859"
1742 ORR,35.17998589,-89.95424663,"35.17998589, -89.95424663"
0 KANSAS,35.091124,-90.066597,"35.091124, -90.066597"
1936 SILVER,35.092522,-90.013868,"35.092522, -90.013868"
1360 CELLA,35.105638,-89.978405,"35.105638, -89.978405"
0 BOXTOWN RD,35.052054,-90.127779,"35.052054, -90.127779"
0 LOCKWOOD CV,35.210653,-89.913976,"35.210653, -89.913976"
585 WELLS AVE,35.17068,-90.03736,"35.17068, -90.03736"
1079 SOMERVILLE,35.117251,-90.026417,"35.117251, -90.026417"
878 E GRIFFITH PL,35.161696,-90.0285,"35.161696, -90.0285"
1645 PRESTON,35.102285,-90.050913,"35.102285, -90.050913"
1620 S ELY ST,35.102724,-90.04192,"35.102724, -90.041920"
1433 LAMBERT ST,35.17547,-89.98267,"35.17547, -89.98267"
1325 BRYAN,35.172224,-89.974637,"35.172224, -89.974637"
2472 CALVERT AVE,35.180249,-89.974529,"35.180249, -89.974529"
263 W FRANK,35.090653,-90.071674,"35.090653, -90.071674"
883 RUSSELL,35.159284,-89.970881,"35.159284, -89.970881"
4387 RANGE LINE RD,35.245435,-89.975969,"35.245435, -89.975969"
529 W NORA RD,35.053711,-90.091355,"35.053711, -90.091355"
616 HOWARD DR,35.01166,-90.0434,"35.01166, -90.0434"
0 N MISSISSIPPI,35.321115,-89.92099,"35.321115, -89.92099"
993 S FOURTH,35.120157,-90.051281,"35.120157, -90.051281"
1198 LATHAM,35.114697,-90.05219,"35.114697, -90.05219"
335 E LUCY AVE,35.113892,-90.051182,"35.113892, -90.051182"
437 E OLIVE,35.109995,-90.047863,"35.109995, -90.047863"
0 FLORIDA,35.114653,-90.062009,"35.114653, -90.062009"
499 WICKS,35.121163,-90.045404,"35.121163, -90.045404"
1128 JAMES,35.115916,-90.022671,"35.115916, -90.022671"
1581 WAVERLY,35.114265,-90.009668,"35.114265, -90.009668"
1486 MILLER,35.106439,-90.041129,"35.106439, -90.041129"
313 W DISON AVE,35.101126,-90.073097,"35.101126, -90.073097"
1571 PATTON ST,35.104503,-90.054137,"35.104503, -90.054137"
1061 N AVALON,35.16746384,-90.00445929,"35.16746384, -90.00445929"
1607 WARFORD,35.17644936,-89.96246919,"35.17644936, -89.96246919"
2158 DUBLIN,35.10376564,-89.99077192,"35.10376564, -89.99077192"
2079 BENFORD,35.090832,-90.073054,"35.090832, -90.073054"
20 W GAGE,35.08794,-90.06361,"35.08794, -90.06361"
136 E GAGE AVE,35.087838,-90.058486,"35.087838, -90.058486"
727 KING,35.060494,-90.088353,"35.060494, -90.088353"
3463 CYPRESS,35.1958407,-89.94819175,"35.1958407, -89.94819175"
0 CHAPEL,35.19602,-89.95482,"35.19602, -89.95482"
337 GASTON AVE,35.117592,-90.050918,"35.117592, -90.050918"
1382 SARDIS,35.10953,-90.04883,"35.10953, -90.04883"
587 WELLS AVE,35.17093,-90.03727,"35.17093, -90.03727"
1130 S LAUDERDALE ST,35.116353,-90.043049,"35.116353, -90.043049"
1264 S POND ST,35.112586,-90.038839,"35.112586, -90.038839"
968 BELLA PL,35.12023,-90.02509,"35.120230, -90.025090"
0 CUMMINGS ST,35.111177,-90.028262,"35.111177, -90.028262"
1045 ROZELLE ST,35.117247,-90.006739,"35.117247, -90.006739"
1478 KYLE,35.105508,-90.004569,"35.105508, -90.004569"
0 BRITTON,35.17959659,-89.98723453,"35.17959659, -89.98723453"
0 McADOO,35.140311,-89.960289,"35.140311, -89.960289"
3097 HOSKINS,35.103098,-89.959321,"35.103098, -89.959321"
2608 DONALD,35.074015,-90.010174,"35.074015, -90.010174"
3068 ST KITTS,35.209293,-89.99465,"35.209293, -89.99465"
1926 THE OAKS AVE,35.201434,-89.999508,"35.201434, -89.999508"
3011 S GREEN RD,35.066502,-90.085424,"35.066502, -90.085424"
0 HARAHAN,35.062425,-90.084889,"35.062425, -90.084889"
758 W GILLEAS RD,35.062052,-90.089326,"35.062052, -90.089326"
728 KING,35.061026,-90.088356,"35.061026, -90.088356"
555 HONDURAS,35.01409567,-90.08254609,"35.01409567, -90.08254609"
726 BULLINGTON,35.1094,-90.038157,"35.1094, -90.038157"
904 JACKSON,35.157341,-90.028411,"35.157341, -90.028411"
93 W KIRK AVE,35.099444,-90.065841,"35.099444, -90.065841"
103 W DISON,35.100862,-90.066106,"35.100862, -90.066106"
1357 WABASH AVE,35.10214,-90.017452,"35.10214, -90.017452"
1150 RAYMOND ST,35.106859,-89.981469,"35.106859, -89.981469"
3242 SINCLAIR ST,35.214044,-90.041828,"35.214044, -90.041828"
4493 SUNCREST,35.248382,-89.9788,"35.248382, -89.9788"
1019 W EYERS RD,35.051169,-90.098045,"35.051169, -90.098045"
0 FORD,35.00907,-90.0821,"35.00907, -90.0821"
606 HOWARD,35.011739,-90.043712,"35.011739, -90.043712"
3425 WARFORD ST,35.21912,-89.96352,"35.21912, -89.96352"
1320 MCMILLAN ST,35.111147,-90.041811,"35.111147, -90.041811"
1559 S ORLEANS,35.10437849,-90.04093722,"35.10437849, -90.04093722"
1747 RILE,35.099948,-90.07523,"35.099948, -90.07523"
1660 CARPENTER,35.17790382,-89.96273879,"35.17790382, -89.96273879"
1484 POPE,35.172899,-89.956349,"35.172899, -89.956349"
1606 LAKE GROVE,35.176336,-89.960815,"35.176336, -89.960815"
630 LEAVERT AVE,35.216864,-90.042878,"35.216864, -90.042878"
0 GREEN,35.06511,-90.084828,"35.06511, -90.084828"
882 W NORA RD,35.053727,-90.093411,"35.053727, -90.093411"
650 HONDURAS DR,35.01465,-90.0858,"35.01465, -90.0858"
5055 S BOWERS RD,35.01043,-90.10685,"35.01043, -90.10685"
0 WARFORD,35.203301,-89.956391,"35.203301, -89.956391"
276 GASTON AVE,35.118096,-90.052954,"35.118096, -90.052954"
403 E EDITH AVE,35.116599,-90.048607,"35.116599, -90.048607"
686 REGENT AVE,35.114782,-90.039346,"35.114782, -90.039346"
1339 GLENN ST,35.110532,-90.045375,"35.110532, -90.045375"
1410 GLEASON AVE,35.110869,-90.015293,"35.110869, -90.015293"
1128 N HOLMES ST,35.162945,-89.950721,"35.162945, -89.950721"
1801 EDWARD AVE,35.167629,-89.997441,"35.167629, -89.997441"
1616 BROOKINS,35.17661381,-89.95528677,"35.17661381, -89.95528677"
2119 DUBLIN,35.103441,-89.99215,"35.103441, -89.99215"
241 W FRANK,35.090576,-90.071006,"35.090576, -90.071006"
1674 RAYNER ST,35.09968,-90.01065,"35.09968, -90.01065"
2726 DEADRICK,35.104868,-89.971568,"35.104868, -89.971568"
3428 BRIDGE WAY,35.0444699,-89.94934113,"35.0444699, -89.94934113"
0 S ROSEBUD RD,35.063858,-90.067612,"35.063858, -90.067612"
0 W WALK,35.05251401,-90.09814288,"35.05251401, -90.09814288"
1219 W FIBER RD,35.05379,-90.10496,"35.05379, -90.10496"
0 OLD BROWNSVILLE,35.258435,-89.836617,"35.258435, -89.836617"
0 WOODWARD,35.108467,-90.02549,"35.108467, -90.02549"
1373 S COOPER,35.10818237,-89.99269753,"35.10818237, -89.99269753"
31 EDSEL,35.10659,-90.06347,"35.10659, -90.06347"
274 E WALDORF,35.105859,-90.053327,"35.105859, -90.053327"
1054 ATLANTIC,35.161008,-89.951815,"35.161008, -89.951815"
1005 N RICHERT ST,35.163578,-89.979722,"35.163578, -89.979722"
248 W FRANK AVE,35.09123,-90.07114,"35.09123, -90.07114"
2273 S MAIN,35.085149,-90.058585,"35.085149, -90.058585"
3066 ST DENNIS,35.209302,-89.995343,"35.209302, -89.995343"
0 NULL,35.00928098,-90.08759107,"35.00928098, -90.08759107"
0 S MART RD,35.04586,-90.04762,"35.04586, -90.04762"
0 GARVER RD,35.214196,-89.966153,"35.214196, -89.966153"
167 N BELLEVUE BLVD,35.14392,-90.0212,"35.14392, -90.0212"
867 MISSISSIPPI BLVD,35.123286,-90.04122,"35.123286, -90.04122"
1640 S MICHIGAN,35.102628,-90.057106,"35.102628, -90.057106"
1519 S MONTGOMERY,35.105067,-90.019932,"35.105067, -90.019932"
200 W DAVANT AV,35.08908,-90.06963,"35.08908, -90.06963"
0 MISSISSIPPI / BALL - (REAR),35.079912,-90.026168,"35.079912, -90.026168"
1460 CARLTON RD,35.07624,-90.014028,"35.076240, -90.014028"
574 KING,35.060946,-90.083168,"35.060946, -90.083168"
930 W CALVIN,35.053124,-90.095044,"35.053124, -90.095044"
1514 W FIELDS,35.049904,-90.114567,"35.049904, -90.114567"
410 LACLEDE AVE,35.118992,-90.048363,"35.118992, -90.048363"
547 E. MCLEMORE,35.115514,-90.043966,"35.115514, -90.043966"
1423 WILLIE MITCHELL BLVD,35.108369,-90.044163,"35.108369, -90.044163"
1535 VICTOR,35.10501295,-90.03832261,"35.10501295, -90.03832261"
199 W SILVERAGE AVE,35.098886,-90.069427,"35.098886, -90.069427"
243 W WALDORF AVE,35.104983,-90.07044,"35.104983, -90.070440"
1537 BARTON,35.10543,-90.05662,"35.10543, -90.05662"
3194 CRUMP,35.162829,-89.954298,"35.162829, -89.954298"
0 ESTRIDGE,35.145426,-89.918111,"35.145426, -89.918111"
0 THE OAKS,35.20164,-90.00293,"35.20164, -90.00293"
4388 RYAN ST,35.245434,-89.976344,"35.245434, -89.976344"
0 PINEDALE,35.20517616,-89.99809206,"35.20517616, -89.99809206"
2740 WOODLAWN TER,35.20022,-89.997045,"35.200220, -89.997045"
493 TUTON CV,35.032536,-90.080563,"35.032536, -90.080563"
705 E LUCY AVE,35.112923,-90.038876,"35.112923, -90.038876"
496 E ESSEX,35.103468,-90.045984,"35.103468, -90.045984"
1533 S ORLEANS ST,35.105135,-90.040911,"35.105135, -90.040911"
0 GAITHER,35.101963,-90.031712,"35.101963, -90.031712"
1626 ARKANSAS ST,35.103243,-90.070537,"35.103243, -90.070537"
2399 DEXTER,35.167929,-89.977287,"35.167929, -89.977287"
35 W FRANK AVE,35.090395,-90.064079,"35.090395, -90.064079"
0 BROOKLYN,35.10958665,-89.98015384,"35.10958665, -89.98015384"
3624 GILLIE,35.22451,-90.004541,"35.22451, -90.004541"
5015 S THIRD ST,35.011474,-90.098002,"35.011474, -90.098002"
1056 ROLAND,35.117011,-90.008439,"35.117011, -90.008439"
2067 E SOUTHERN,35.115648,-89.993532,"35.115648, -89.993532"
0 NATIONAL,35.15285,-89.947141,"35.15285, -89.947141"
0 E SMITH AVE,35.174822,-90.016356,"35.174822, -90.016356"
1435 N HYDE PARK BLVD,35.175599,-89.98465,"35.175599, -89.98465"
2204 GRIGGS AVE,35.176289,-89.983578,"35.176289, -89.983578"
2340 NORMAN,35.17247,-89.97912,"35.17247, -89.97912"
1517 ORR ST,35.1739,-89.95498,"35.1739, -89.95498"
0 FAIROAKS,35.16705,-89.940536,"35.16705, -89.940536"
1527 HAMILTON ST,35.103589,-89.978317,"35.103589, -89.978317"
198 W MCKELLAR,35.08968627,-90.06955206,"35.08968627, -90.06955206"
90 BODLEY,35.084858,-90.06001,"35.084858, -90.06001"
0 JONES,35.148897,-90.035299,"35.148897, -90.035299"
2955 BARRON,35.100089,-89.964139,"35.100089, -89.964139"
2440 SPARKS ST,35.078647,-90.012194,"35.078647, -90.012194"
0 RUGBY,35.206197,-90.001068,"35.206197, -90.001068"
3894 SCHOOLFIELD RD,35.231895,-89.968126,"35.231895, -89.968126"
4101 S MCCAIN RD,35.036826,-90.078891,"35.036826, -90.078891"
0 TULANE,35.000194,-90.043281,"35.000194, -90.043281"
4652 GARDEN WALK,35.25331075,-89.93504134,"35.25331075, -89.93504134"
0 MONTGOMERY,35.161197,-90.016857,"35.161197, -90.016857"
0 McLEMORE E.,35.115845,-90.059049,"35.115845, -90.059049"
1092 ARNOLD,35.117348,-90.041798,"35.117348, -90.041798"
1414 LEFLORE,35.108435,-90.039682,"35.108435, -90.039682"
968 BELLA,35.120236,-90.025096,"35.120236, -90.025096"
1628 S HUMBER,35.102723,-90.045065,"35.102723, -90.045065"
0 E PERSON,35.101288,-90.038886,"35.101288, -90.038886"
266 W KIRK AVE,35.10006,-90.071433,"35.10006, -90.071433"
2296 HUBBARD,35.17408,-89.980601,"35.17408, -89.980601"
1308 STANDRIDGE ST,35.171677,-89.971661,"35.171677, -89.971661"
1678 N CARPENTER ST,35.178351,-89.962692,"35.178351, -89.962692"
1217 E MALLORY AVE,35.085284,-90.022402,"35.085284, -90.022402"
1529 E DEMPSTER AVE,35.083991,-90.012061,"35.083991, -90.012061"
0 GREEN,35.06578,-90.084815,"35.06578, -90.084815"
260 GLENCOE RD,35.050828,-90.072793,"35.050828, -90.072793"
1438 LEFLORE PL,35.10778,-90.03969,"35.10778, -90.03969"
0 E TRIGG,35.11152519,-90.02801135,"35.11152519, -90.02801135"
1992 E NEDRA,35.17937819,-89.99067074,"35.17937819, -89.99067074"
1779 ELDRIDGE AVE,35.170612,-89.998013,"35.170612, -89.998013"
3042 SHANNON AVE,35.180555,-89.958642,"35.180555, -89.958642"
1470 ORR,35.17248,-89.954483,"35.17248, -89.954483"
0 PINEDALE,35.205355,-90.00222,"35.205355, -90.00222"
3058 S SAX RD,35.065233,-90.086303,"35.065233, -90.086303"
902 MT PISGAH RD,35.050669,-90.09408,"35.050669, -90.09408"
0 OLD AUSTIN PEAY HWY,35.20025,-89.92296,"35.20025, -89.92296"
1344 SARDIS,35.110591,-90.048793,"35.110591, -90.048793"
1339 ADELAIDE,35.11084861,-90.06157166,"35.11084861, -90.06157166"
319 MODDER AVE,35.098103,-90.073401,"35.098103, -90.073401"
1593 N HARRISON ST,35.179659,-89.977942,"35.179659, -89.977942"
1630 SUNSET,35.176966,-89.958958,"35.176966, -89.958958"
198 W MCKELLAR AVE,35.089686,-90.069552,"35.089686, -90.069552"
1480 HINDMAN,35.19351542,-90.01445173,"35.19351542, -90.01445173"
4506 SUNNY CV,35.24867,-89.97917,"35.24867, -89.97917"
307 E ESSEX,35.10334,-90.05228,"35.10334, -90.05228"
1668 PRESTON,35.101682,-90.050277,"35.101682, -90.050277"
1502 MCMILLAN ST,35.106066,-90.042318,"35.106066, -90.042318"
1654 N GAITHER,35.101622,-90.031089,"35.101622, -90.031089"
338 FIELDS AVE,35.10388,-90.073786,"35.10388, -90.073786"
1739 S FARRINGTON,35.100202,-90.074398,"35.100202, -90.074398"
1486 ARKANSAS ST,35.107095,-90.070232,"35.107095, -90.070232"
1098 ATLANTIC,35.162473,-89.951749,"35.162473, -89.951749"
1382 DORIS,35.101815,-90.016626,"35.101815, -90.016626"
2056 FARRINGTON,35.091536,-90.074219,"35.091536, -90.074219"
2562 DONALD,35.075338,-90.010135,"35.075338, -90.010135"
3018 S GREEN RD,35.066354,-90.084803,"35.066354, -90.084803"
0 WALK,35.05249823,-90.09771803,"35.05249823, -90.09771803"
4549 WHITE OWL,35.250333,-89.933479,"35.250333, -89.933479"
0 PALGRAVE LN,35.04668,-89.81451,"35.046680, -89.814510"
283 BULLINGTON AVE,35.10921,-90.053075,"35.109210, -90.053075"
0 KNEY,35.16566,-90.02339,"35.16566, -90.02339"
130 MAJUBA,35.0972008,-90.06710576,"35.0972008, -90.06710576"
132 W INGLE AVE,35.100578,-90.067018,"35.100578, -90.067018"
1679 S KANSAS ST,35.101593,-90.065249,"35.101593, -90.065249"
0 LIPFORD,35.146301,-89.963251,"35.146301, -89.963251"
0 TUNICA,35.17356297,-89.98639237,"35.17356297, -89.98639237"
1527 N SANDRIDGE ST,35.17778,-89.97211,"35.17778, -89.97211"
147 TEMPLE AVE,35.089999,-90.067797,"35.089999, -90.067797"
659 FRAYSER DR,35.215665,-90.041897,"35.215665, -90.041897"
0 RAINEY CV,35.207955,-90.013808,"35.207955, -90.013808"
0 DELP ST,35.030929,-89.928422,"35.030929, -89.928422"
115 W PEEBLES RD,35.066217,-90.067816,"35.066217, -90.067816"
3856 CAZASSA,35.0435814,-90.00210015,"35.0435814, -90.00210015"
3842 BLUE JAY,35.0438973,-90.0031773,"35.0438973, -90.00317729999999"
0 COVINGTON PIKE,35.187612,-89.897686,"35.187612, -89.897686"
3888 WHITE OWL,35.25324315,-89.93381033,"35.25324315, -89.93381033"
712 WILLIAMS,35.12252,-90.03809,"35.12252, -90.03809"
0 SHAW,35.117897,-90.039168,"35.117897, -90.039168"
935 TULLY ST,35.166716,-90.035256,"35.166716, -90.035256"
1489 S ORLEANS,35.106365,-90.040865,"35.106365, -90.040865"
1031 N WILLETT,35.166797,-90.006265,"35.166797, -90.006265"
2211 E CLAYTON AVE,35.17671,-89.9833,"35.17671, -89.9833"
1731 ASH ST,35.179771,-89.953847,"35.179771, -89.953847"
141 MCKELLAR W.,35.08935,-90.06765,"35.08935, -90.06765"
0 FRANK W.,35.09113,-90.06758,"35.09113, -90.06758"
136 E GAGE,35.087844,-90.058492,"35.087844, -90.058492"
2383 SARATOGA AVE,35.108968,-89.982808,"35.108968, -89.982808"
0 E CASCADE,35.205481,-89.992905,"35.205481, -89.992905"
655 W PEEBLES RD,35.066695,-90.085977,"35.066695, -90.085977"
37 W GEETER,35.0183336,-90.0650665,"35.0183336, -90.0650665"
5055 BOWERS RD,35.01043,-90.10685,"35.01043, -90.10685"
1301 ENGLEWOOD ST,35.11107,-90.02623,"35.11107, -90.02623"
701 LEATH ST,35.159746,-90.031803,"35.159746, -90.031803"
816 IOKA AVE,35.127211,-90.0345,"35.127211, -90.0345"
153 E MAJUBA AVE,35.096841,-90.067971,"35.096841, -90.067971"
3195 CRUMP,35.162413,-89.95392,"35.162413, -89.95392"
0 PLEASANT CV.,35.161487,-89.929277,"35.161487, -89.929277"
0 N KNEY ST,35.177253,-90.022495,"35.177253, -90.022495"
0 STONEWALL,35.1738171,-90.00693187,"35.1738171, -90.00693187"
1431 BRYAN ST,35.175126,-89.974536,"35.175126, -89.974536"
1340 ETHEL ST,35.10584,-89.98316,"35.10584, -89.98316"
0 SPRING,35.19384714,-89.94938646,"35.19384714, -89.94938646"
0 ST. ELMO,35.230969,-89.887546,"35.230969, -89.887546"
0 FLEET,35.12611,-90.03572,"35.12611, -90.03572"
0 THIRD,35.12035941,-90.05467829,"35.12035941, -90.05467829"
939 BREEDLOVE,35.165369,-90.022272,"35.165369, -90.022272"
245 W UTAH,35.113304,-90.070556,"35.113304, -90.070556"
1566 LATHAM,35.104467,-90.051331,"35.104467, -90.051331"
1524 S BARTON ST,35.105763,-90.056094,"35.105763, -90.056094"
0 E IVORY AVE,35.172228,-90.037009,"35.172228, -90.037009"
2355 GOLDEN AVE,35.172753,-89.978647,"35.172753, -89.978647"
0 SHASTA AVE,35.169126,-89.979934,"35.169126, -89.979934"
1389 ETHLYN,35.10432238,-90.0162818,"35.10432238, -90.0162818"
49 W GAGE AVE,35.087396,-90.064615,"35.087396, -90.064615"
1529 ELLISTON,35.08709,-90.01192,"35.08709, -90.01192"
893 N FRAYSER CIR,35.215674,-90.03417,"35.215674, -90.03417"
2840 BEECHMONT ST,35.203045,-90.001689,"35.203045, -90.001689"
3058 GREEN RD,35.06535,-90.084824,"35.065350, -90.084824"
730 HAZELWOOD,35.060025,-90.088443,"35.060025, -90.088443"
1301 W MARGARET RD,35.00702,-90.10699,"35.00702, -90.10699"
0 W NAVY CL,35.3390845,-89.8868821,"35.3390845, -89.8868821"
1428 S ORLEANS ST,35.108047,-90.040617,"35.108047, -90.040617"
1436 NIESE,35.10747,-90.02672,"35.10747, -90.02672"
1032 KYLE ST,35.117493,-90.004854,"35.117493, -90.004854"
199 INGLE AVE,35.100293,-90.069339,"35.100293, -90.069339"
1495 N TREZEVANT ST,35.1771,-89.9804,"35.1771, -89.9804"
2371 CHELSEA,35.17431445,-89.97805927,"35.17431445, -89.97805927"
2360 E HUNTER AVE,35.1699,-89.97858,"35.1699, -89.97858"
2966 SHANNON,35.18047,-89.961138,"35.18047, -89.961138"
3415 BUCHANAN AVE,35.16544,-89.946787,"35.165440, -89.946787"
4265 BARR AVE,35.0811,-89.92,"35.0811, -89.92"
HINDMAN,35.193604,-90.012154,"35.193604, -90.012154"
1334 W LONGCREST RD,35.00676,-90.10863,"35.00676, -90.10863"
0 PALGRAVE,35.04748,-89.81615,"35.04748, -89.81615"
792 BALTIMORE,35.110758,-89.972656,"35.110758, -89.972656"
0 HENRY AVE,35.160989,-89.949753,"35.160989, -89.949753"
1425 N MCNEIL ST,35.177481,-90.007652,"35.177481, -90.007652"
2275 SHASTA,35.16868,-89.98136,"35.16868, -89.98136"
3124 MT OLIVE,35.175305,-89.955975,"35.175305, -89.95597500000001"
3082 SHANNON AVE,35.180527,-89.957304,"35.180527, -89.957304"
247 W HOLLAND,35.092439,-90.071061,"35.092439, -90.071061"
3283 E GILL,35.059172,-90.057587,"35.059172, -90.057587"
422 N MANASSAS ST,35.152239,-90.033621,"35.152239, -90.033621"
0 SARATOGA AVE,35.109368,-89.983042,"35.109368, -89.983042"
4249 ARGONNE,35.241947,-89.995995,"35.241947, -89.995995"
694 W HARAHAN RD,35.063026,-90.087276,"35.063026, -90.087276"
4280 BROWNLEE,35.03211505,-90.02650793,"35.03211505, -90.02650793"
4629 WHITE OWL,35.252136,-89.933224,"35.252136, -89.933224"
338 E LACLEDE,35.119048,-90.050847,"35.119048, -90.050847"
975 KNEY,35.166505,-90.023312,"35.166505, -90.023312"
0 AZALIA,35.10845,-90.028271,"35.10845, -90.028271"
758 MARECHALNEIL ST,35.111565,-89.979263,"35.111565, -89.979263"
1607 BARNES,35.10283224,-90.02852384,"35.10283224, -90.02852384"
1621 HARRISON,35.180421,-89.977917,"35.180421, -89.977917"
1498 BOXWOOD ST,35.177229,-89.981037,"35.177229, -89.981037"
0 STANDRIDGE,35.177176,-89.971488,"35.177176, -89.971488"
1882 PINEDALE,35.205966,-90.000903,"35.205966, -90.000903"
2548 NEW RALEIGH RD,35.19496,-89.951471,"35.194960, -89.951471"
732 E TRIGG,35.112368,-90.037945,"35.112368, -90.037945"
955 GREENWOOD,35.120544,-90.024745,"35.120544, -90.024745"
1413 WOODBINE,35.107978,-90.022225,"35.107978, -90.022225"
1577 S ORLEANS ST,35.103926,-90.040956,"35.103926, -90.040956"
1480 S HAVANA,35.106436,-90.033692,"35.106436, -90.033692"
0 W DISON AVE,35.101016,-90.069853,"35.101016, -90.069853"
0 W. PERSON,35.102,-90.066737,"35.102, -90.066737"
2248 E CURRY AVE,35.180231,-89.981832,"35.180231, -89.981832"
2376 E SHASTA AVE,35.169073,-89.978078,"35.169073, -89.978078"
1576 BROOKINS ST,35.17554,-89.95532,"35.17554, -89.95532"
0 FAIROAKS,35.167391,-89.941408,"35.167391, -89.941408"
1687 RAYNER ST,35.099311,-90.011472,"35.099311, -90.011472"
4899 WINCHESTER,35.05063701,-89.90021255,"35.05063701, -89.90021255"
458 W DIXIE RD,35.064913,-90.07948,"35.064913, -90.079480"
SIMPSON,35.115151,-90.04954,"35.115151, -90.04954"
322 E TRIGG AVE,35.112584,-90.051724,"35.112584, -90.051724"
455 E ALSTON AVE,35.123476,-90.046788,"35.123476, -90.046788"
894 S. LAUDERDALE,35.122672,-90.044037,"35.122672, -90.044037"
517 WALKER AVE,35.119309,-90.044764,"35.119309, -90.044764"
0 LEATH ST,35.162156,-90.031449,"35.162156, -90.031449"
542 BALTIMORE ST,35.117365,-89.972299,"35.117365, -89.972299"
1063 SEATTLE,35.116842,-90.003337,"35.116842, -90.003337"
1640 GRIMES ST,35.102487,-90.052519,"35.102487, -90.052519"
1659 PRESTON ST,35.10182,-90.05093,"35.10182, -90.05093"
0 HAVANA,35.103959,-90.03417,"35.103959, -90.03417"
1035 ROSEWOOD AVE,35.094764,-90.028294,"35.094764, -90.028294"
246 MAJUBA,35.09734,-90.07101,"35.09734, -90.07101"
1510 DAVIS,35.177707,-89.988506,"35.177707, -89.988506"
2955 LARK AVE,35.177324,-89.961588,"35.177324, -89.961588"
3109 PARK AVE,35.107399,-89.9589,"35.107399, -89.958900"
1040 GRAND,35.1074,-89.98225,"35.1074, -89.98225"
4858 ORTIE DR,35.01561,-90.070593,"35.01561, -90.070593"
4714 BERTA,35.0198447,-90.04504708,"35.0198447, -90.04504708"
1271 W FIELDS,35.04796997,-90.10662239,"35.04796997, -90.10662239"
3473 LICHTERMAN RD,35.053792,-89.865667,"35.053792, -89.865667"
426 WALKER AVE,35.119895,-90.048018,"35.119895, -90.048018"
970 E TRIGG AVE,35.11192,-90.02979,"35.11192, -90.02979"
0 S COLLEGE,35.111255,-90.029839,"35.111255, -90.029839"
1403 GREENWOOD,35.108257,-90.024641,"35.108257, -90.024641"
891 KEEL,35.161848,-90.02815,"35.161848, -90.02815"
1637 PATTON,35.102656,-90.054217,"35.102656, -90.054217"
0 GREENVIEW,35.168779,-89.997107,"35.168779, -89.997107"
0 HUNTER AVE,35.169399,-89.978995,"35.169399, -89.978995"
3102 MT OLIVE RD,35.175395,-89.956831,"35.175395, -89.956831"
1619 SUNSET,35.17665779,-89.95951334,"35.17665779, -89.95951334"
0 BAINE,35.08422,-89.94116,"35.08422, -89.94116"
2063 PERRY RD,35.08895,-90.01073,"35.08895, -90.01073"
0 LEDGER,35.094346,-90.017207,"35.094346, -90.017207"
1150 RAYMOND,35.106865,-89.981475,"35.106865, -89.981475"
1109 CELLA ST,35.106953,-89.978779,"35.106953, -89.978779"
3582 CHRISTINE,35.04352994,-89.94420802,"35.04352994, -89.94420802"
833 EYERS,35.05099,-90.0918,"35.05099, -90.0918"
1166 MARGARET,35.010825,-90.103177,"35.010825, -90.103177"
1251 FAXON AVE,35.155098,-90.01722,"35.155098, -90.01722"
908 OREANS S.,35.122188,-90.041615,"35.122188, -90.041615"
621 JENNETTE PL,35.118391,-90.04134,"35.118391, -90.04134"
708 BETHEL,35.16320724,-90.03427875,"35.16320724, -90.03427875"
1490 HARLEM,35.105157,-90.001327,"35.105157, -90.001327"
1432 HARLEM ST,35.106666,-90.001286,"35.106666, -90.001286"
1576 S MILLER ST,35.104045,-90.041239,"35.104045, -90.041239"
1667 S RAYBURN ST,35.101826,-90.054969,"35.101826, -90.054969"
1498 PATTON,35.10649491,-90.05364235,"35.10649491, -90.05364235"
1429 HYDE PARK,35.175429,-89.984663,"35.175429, -89.984663"
0 OAKWOOD,35.1828751,-89.97599856,"35.1828751, -89.97599856"
2506 E WINNONA AVE,35.166772,-89.973718,"35.166772, -89.973718"
1457 N FAIRFAX ST,35.17573,-89.97106,"35.17573, -89.97106"
2388 ARLINGTON AVE,35.10152,-89.983237,"35.10152, -89.983237"
39 E MALLORY AVE,35.08647,-90.06168,"35.08647, -90.06168"
0 CINCINNATI,35.100316,-90.013199,"35.100316, -90.013199"
0 W GILLEAS RD,35.061394,-90.08316,"35.061394, -90.083160"
5326 JORDAN DR,35.003086,-89.997682,"35.003086, -89.997682"
726 N DUNLAP,35.160177,-90.029977,"35.160177, -90.029977"
677 BUNTYN ST,35.11356,-89.97229,"35.11356, -89.97229"
307 ESSEX,35.10334,-90.05228,"35.10334, -90.05228"
2707 BURNS,35.093787,-89.972635,"35.093787, -89.972635"
167 FRANK W.,35.090686,-90.068443,"35.090686, -90.068443"
4389 HWY 61,35.02863,-90.081414,"35.02863, -90.081414"
0 W HOLMES RD,35.006449,-90.078761,"35.006449, -90.078761"
1271 FIELDS RD,35.04797,-90.106622,"35.047970, -90.106622"
0 PALGRAVE,35.04668032,-89.81450967,"35.04668032, -89.81450967"
1050 E BEACH,35.118201,-90.031578,"35.118201, -90.031578"
1274 EMPIRE,35.173566,-90.014436,"35.173566, -90.014436"
0 FLORIDA ST,35.112239,-90.061982,"35.112239, -90.061982"
1510 PRESTON,35.105994,-90.050111,"35.105994, -90.050111"
1759 S SWIFT,35.09961,-90.073574,"35.09961, -90.073574"
195 SILVERAGE,35.098879,-90.069264,"35.098879, -90.069264"
0 INGLE,35.100536,-90.066075,"35.100536, -90.066075"
1626 POPE,35.176842,-89.956196,"35.176842, -89.956196"
154 W MCKELLAR AE,35.0897,-90.068017,"35.089700, -90.068017"
0 CLEMENTINE,35.072216,-90.017991,"35.072216, -90.017991"
2341 SARATOGA,35.109022,-89.984407,"35.109022, -89.984407"
1306 CARROLTON RD,35.225615,-90.020163,"35.225615, -90.020163"
492 GEORGE ST,35.015751,-90.080445,"35.015751, -90.080445"
0 ARDVALE,35.213501,-89.955602,"35.213501, -89.955602"
0 E NEW ALLEN,35.212725,-89.946591,"35.212725, -89.946591"
410 E TRIGG,35.1125312,-90.04862243,"35.1125312, -90.04862243"
437 OLIVE E.,35.1101,-90.04786,"35.1101, -90.04786"
917 BREEDLOVE,35.164751,-90.022363,"35.164751, -90.022363"
292 W DISON AVE,35.101514,-90.072377,"35.101514, -90.072377"
3269 HENRY,35.160024,-89.951715,"35.160024, -89.951715"
2192 GRIGGS,35.176302,-89.983989,"35.176302, -89.983989"
0 HWY. 40,35.1473,-89.92905,"35.1473, -89.92905"
540 E FRANK AVE,35.09068,-90.04495,"35.09068, -90.04495"
0 STURGEON,35.088516,-89.938695,"35.088516, -89.938695"
2955 BARRON AVE,35.100089,-89.964139,"35.100089, -89.964139"
360 W PEEBLES RD,35.06702,-90.07616,"35.06702, -90.07616"
5230 MARTIN EDWARDS PL,35.005476,-90.006193,"35.005476, -90.006193"
3895 WHITE OWL,35.252815,-89.933988,"35.252815, -89.933988"
3583 HAWKINS MILL RD,35.232342,-89.944225,"35.232342, -89.944225"
3021 HORIZON CENTER,35.196465,-89.794867,"35.196465, -89.794867"
S FLORIDA ST,35.105096,-90.062844,"35.105096, -90.062844"
0 PLEASANT CV.,35.161736,-89.929268,"35.161736, -89.929268"
1356 N BELLEVUE BLVD,35.176451,-90.017205,"35.176451, -90.017205"
1425 N MCNEIL,35.17748074,-90.00765156,"35.17748074, -90.00765156"
1368 N HYDE PARK BLVD,35.17371,-89.984314,"35.173710, -89.984314"
2275 SHASTA,35.168766,-89.981352,"35.168766, -89.981352"
1457 STANDRIDGE,35.17578077,-89.97217436,"35.17578077, -89.97217436"
1629 ORR ST,35.177,-89.954871,"35.177000, -89.954871"
1629 S COOPER ST,35.101072,-89.992987,"35.101072, -89.992987"
0 W HOLLAND AVE,35.093002,-90.071381,"35.093002, -90.071381"
1763 WILLOW WOOD AVE,35.212028,-90.005062,"35.212028, -90.005062"
0 FELTON,35.208805,-89.947485,"35.208805, -89.947485"
0 CHADWELL RD,35.286714,-89.909922,"35.286714, -89.909922"
1096 S ORLEANS,35.11721421,-90.04063967,"35.11721421, -90.04063967"
0 AZALIA ST,35.116134,-90.027914,"35.116134, -90.027914"
874 GRIFFITH,35.16171,-90.028617,"35.16171, -90.028617"
0 MARIANNA,35.11461,-89.970901,"35.114610, -89.970901"
1566 S MILLER,35.10428109,-90.04106877,"35.10428109, -90.04106877"
0 MERRIDETH,35.102972,-90.066708,"35.102972, -90.066708"
802 E GAGE AVE,35.087447,-90.036241,"35.087447, -90.036241"
158 TEMPLE AVE,35.090377,-90.068121,"35.090377, -90.068121"
1719 ONTARIO AVE,35.197198,-90.0065,"35.197198, -90.006500"
0 BOXTOWN RD,35.051989,-90.126438,"35.051989, -90.126438"
1231 LATHAM ST,35.113705,-90.052789,"35.113705, -90.052789"
721 E WILLIAMS,35.12191561,-90.03808979,"35.12191561, -90.03808979"
1351 ORGILL,35.111956,-90.017273,"35.111956, -90.017273"
148 W INGLE,35.100619,-90.067823,"35.100619, -90.067823"
174 W DISON,35.10134,-90.068403,"35.10134, -90.068403"
1583 PATTON ST,35.104108,-90.054153,"35.104108, -90.054153"
0 NEW WILLOW RD,35.087192,-89.926648,"35.087192, -89.926648"
2450 PECAN,35.080613,-89.980861,"35.080613, -89.980861"
1633 NATIONAL ST,35.176693,-89.940343,"35.176693, -89.940343"
3118 MOUNTAIN TERRACE,35.210567,-89.984389,"35.210567, -89.984389"
620 W HARAHAN RD,35.062979,-90.084787,"35.062979, -90.084787"
1062 W CAREY,35.048705,-90.100267,"35.048705, -90.100267"
892 SAXON AVE,35.117637,-90.032323,"35.117637, -90.032323"
0 YAZOO,35.111522,-90.058837,"35.111522, -90.058837"
1339 MCMILLAN,35.11056781,-90.04263457,"35.11056781, -90.04263457"
0 LEATH,35.162103,-90.030861,"35.162103, -90.030861"
2655 SPOTTSWOOD,35.11393197,-89.97355178,"35.11393197, -89.97355178"
0 DAVID,35.112225,-89.974688,"35.112225, -89.974688"
1016 WICHITA AVE,35.09851,-90.02895,"35.09851, -90.02895"
0 S RAYBURN ST,35.102542,-90.054942,"35.102542, -90.054942"
1605 HOLLYWOOD,35.179951,-89.975587,"35.179951, -89.975587"
2339 HUNTER AVE,35.169408,-89.979264,"35.169408, -89.979264"
1595 SUNSET,35.17611,-89.959535,"35.17611, -89.959535"
3082 SHANNON,35.180534,-89.95731,"35.180534, -89.95731"
0 HUGENOT,35.10097,-89.97664,"35.10097, -89.97664"
2069 RILE,35.09114,-90.07559,"35.09114, -90.07559"
50 W MALLORY,35.086956,-90.064661,"35.086956, -90.064661"
2079 KENTUCKY,35.090638,-90.065735,"35.090638, -90.065735"
0 BALTIC,35.157456,-89.957721,"35.157456, -89.957721"
4895 SOUTHWORTH CT,35.04884,-89.90016,"35.04884, -89.90016"
4229 S DON,35.033221,-90.086825,"35.033221, -90.086825"
733 E WILLIAMS,35.12185618,-90.03749627,"35.12185618, -90.03749627"
1274 EMPIRE AVE,35.173566,-90.014436,"35.173566, -90.014436"
1332 VOLLINTINE AVE,35.16513,-90.0129,"35.16513, -90.0129"
1238 S WELLINGTON,35.11348,-90.04677,"35.11348, -90.04677"
1399 HUMBER ST,35.109,-90.04508,"35.109, -90.04508"
0 CUMMINGS,35.116134,-90.027914,"35.116134, -90.027914"
741 MARIANNA ST,35.11178,-89.97151,"35.11178, -89.97151"
0 INGLE AVE,35.100536,-90.066075,"35.100536, -90.066075"
1630 BARTON ST,35.102873,-90.056192,"35.102873, -90.056192"
1645 S RAYBURN ST,35.102493,-90.054944,"35.102493, -90.054944"
2177 CURRY,35.179825,-89.984314,"35.179825, -89.984314"
2352 NORMAN,35.172426,-89.978789,"35.172426, -89.978789"
2340 E MARBLE AVE,35.171371,-89.979157,"35.171371, -89.979157"
0 E DEVOY AVE,35.165852,-89.981753,"35.165852, -89.981753"
1814 BLAIR HUNT DR,35.097924,-90.064128,"35.097924, -90.064128"
1474 DUNNHAVEN CV,35.091527,-90.013765,"35.091527, -90.013765"
0 CINCINNATI,35.094601,-90.013737,"35.094601, -90.013737"
1348 CARROLTON RD,35.225546,-90.018553,"35.225546, -90.018553"
0 RAINIER ST,35.209536,-90.017801,"35.209536, -90.017801"
2449 HARGROVE,35.217168,-89.981849,"35.217168, -89.981849"
17 BROWN,35.03439,-90.063657,"35.03439, -90.063657"
0 DILLARD,35.211975,-89.948577,"35.211975, -89.948577"
0 OLD AUSTIN PEAY HWY,35.200292,-89.922939,"35.200292, -89.922939"
297 E BOND AVE,35.108308,-90.052517,"35.108308, -90.052517"
114 E FARROW,35.11407165,-90.05848856,"35.11407165, -90.05848856"
0 LUCY,35.114721,-90.057751,"35.114721, -90.057751"
0 E MCLEMORE AVE,35.115756,-90.057945,"35.115756, -90.057945"
0 INGLE AVE,35.100308,-90.069647,"35.100308, -90.069647"
0 ARGYLE AVE,35.177218,-90.016167,"35.177218, -90.016167"
1244 SMITH AVE,35.17483,-90.01542,"35.17483, -90.01542"
1394 STANDRIDGE,35.174009,-89.971587,"35.174009, -89.971587"
94 W NORWOOD,35.09204667,-90.06613361,"35.09204667, -90.06613361"
1393 KIMBALL,35.09659255,-90.01653793,"35.09659255, -90.01653793"
2470 HAISCH RD,35.249543,-89.981143,"35.249543, -89.981143"
4576 KERWIN,35.250573,-89.933443,"35.250573, -89.933443"
8702 GREENHILL RD,35.364242,-89.900295,"35.364242, -89.900295"
403 E EDITH,35.116606,-90.048613,"35.116606, -90.048613"
0 YAZOO ALLEY,35.111522,-90.058837,"35.111522, -90.058837"
894 S LAUDERDALE,35.122672,-90.044037,"35.122672, -90.044037"
1130 S LAUDERDALE,35.11635344,-90.04304868,"35.11635344, -90.04304868"
1652 MILLER,35.101879,-90.041299,"35.101879, -90.041299"
244 W INGLE AVE,35.100741,-90.070772,"35.100741, -90.070772"
1412 May,35.175094,-89.989755,"35.175094, -89.989755"
2110 CLARKSDALE,35.177934,-89.986741,"35.177934, -89.986741"
1519 OAKWOOD ST,35.177586,-89.97684,"35.177586, -89.976840"
2404 E NORMAN AVE,35.17227,-89.97703,"35.17227, -89.97703"
2269 MAIN ST,35.0853,-90.05858,"35.0853, -90.05858"
2971 BREWER,35.084122,-89.963621,"35.084122, -89.963621"
2971 BREWER AVE,35.084115,-89.963615,"35.084115, -89.963615"
3099 MORNINGSIDE,35.210182,-90.039209,"35.210182, -90.039209"
303 E TRIGG AVE,35.112155,-90.052156,"35.112155, -90.052156"
0 GREENWOOD ST,35.120625,-90.024745,"35.120625, -90.024745"
975 GREENWOOD,35.120026,-90.024752,"35.120026, -90.024752"
1180 AZALIA,35.11471,-90.02869,"35.11471, -90.02869"
1729 S FARRINGTON,35.10036579,-90.07439143,"35.10036579, -90.07439143"
0 MICHIGAN ST,35.10201,-90.057647,"35.10201, -90.057647"
1436 SPRINGDALE ST,35.175593,-89.983054,"35.175593, -89.983054"
1839 THE OAKS AVE,35.200954,-90.002557,"35.200954, -90.002557"
3038 ST DENNIS PL,35.20852,-89.99535,"35.20852, -89.99535"
0 CASTLEMAN ST,35.073447,-89.888694,"35.073447, -89.888694"
0 OAK,35.024764,-90.07912,"35.024764, -90.07912"
0 FORD FRD,35.009042,-90.082101,"35.009042, -90.082101"
3420 ALLEN,35.219156,-89.946043,"35.219156, -89.946043"
1246 SARDIS,35.113323,-90.04926,"35.113323, -90.04926"
0 E SIMPSON,35.115018,-90.058079,"35.115018, -90.058079"
104 SILVERAGE AV,35.099134,-90.066255,"35.099134, -90.066255"
1240 N COKER ST,35.17349,-90.01892,"35.17349, -90.01892"
0 SHANNON,35.180433,-89.960952,"35.180433, -89.960952"
1672 ORR,35.17818,-89.95431,"35.17818, -89.95431"
238 W NORWOOD AVE,35.091987,-90.070759,"35.091987, -90.070759"
2731 BYRD,35.083704,-89.971587,"35.083704, -89.971587"
3044 SUNRISE,35.208634,-90.03969305,"35.208634, -90.03969305"
0 PEEBLES,35.06685,-90.08597,"35.06685, -90.08597"
813 MT. PISGAH,35.05014,-90.09109,"35.05014, -90.09109"
571 WICKS AVE,35.121024,-90.042916,"35.121024, -90.042916"
1405 HEMLOCK ST,35.108213,-90.022981,"35.108213, -90.022981"
1415 RICHMOND,35.10995709,-90.01517531,"35.10995709, -90.01517531"
1577 NETHERWOOD AVE,35.11344,-90.00986,"35.11344, -90.00986"
1535 VICTOR ST,35.105013,-90.038323,"35.105013, -90.038323"
0 N MCNEIL,35.17548,-90.007224,"35.17548, -90.007224"
1577 N HOLLYWOOD ST,35.17919,-89.97561,"35.17919, -89.97561"
2271 SHASTA,35.16877206,-89.98149566,"35.16877206, -89.98149566"
0 SARATOGA,35.109374,-89.983047,"35.109374, -89.983047"
1734 DUPONT AVE,35.19688,-90.006,"35.19688, -90.006"
0 ST ELMO,35.233368,-89.976974,"35.233368, -89.976974"
2717 MARGOT,35.074671,-89.943359,"35.074671, -89.943359"
0 S ERNIE DR,35.025049,-90.014341,"35.025049, -90.014341"
0 S FLEET ST,35.126102,-90.035717,"35.126102, -90.035717"
724 E WILLIAMS,35.122388,-90.03764,"35.122388, -90.03764"
492 E IDA PL,35.116416,-90.035805,"35.116416, -90.035805"
780 LEATH ST,35.1619,-90.03089,"35.1619, -90.03089"
1504 BARTON,35.106334,-90.056072,"35.106334, -90.056072"
1593 PATTON ST,35.103822,-90.054174,"35.103822, -90.054174"
311 HARRELL ST,35.143234,-89.966192,"35.143234, -89.966192"
1630 DAVIS,35.181052,-89.988182,"35.181052, -89.988182"
1428 N ORIOLE ST,35.17142,-89.95826,"35.17142, -89.95826"
1483 SILVER ST,35.1058,-90.01273,"35.1058, -90.01273"
1468 SOUTH,35.103192,-90.013744,"35.103192, -90.013744"
86 E GAGE,35.087864,-90.060159,"35.087864, -90.060159"
0 TUCKAHOE - (REAR),35.12613,-89.91858,"35.12613, -89.91858"
1461 MENAGER,35.09725,-90.01434,"35.09725, -90.01434"
0 RANGER,35.030667,-90.088532,"35.030667, -90.088532"
5715 MAPLE TREE DR,35.04235,-89.87301,"35.04235, -89.87301"
JULIA CV,35.302792,-89.913783,"35.302792, -89.913783"
1221 S SARDIS,35.11400884,-90.0497954,"35.11400884, -90.0497954"
388 RICHMOND,35.111486,-90.049386,"35.111486, -90.049386"
1320 MCMILLAN,35.111153,-90.041817,"35.111153, -90.041817"
1548 MCMILLAN ST,35.10477,-90.0425,"35.10477, -90.0425"
0 DUNN,35.093193,-90.026302,"35.093193, -90.026302"
0 N WILLETT ST,35.168222,-90.006278,"35.168222, -90.006278"
2379 HUNTER,35.16937,-89.97793,"35.16937, -89.97793"
0 ASH,35.179434,-89.953858,"35.179434, -89.953858"
186 E MCKELLAR AVE,35.089813,-90.056749,"35.089813, -90.056749"
4507 SUNCREST,35.248799,-89.978811,"35.248799, -89.978811"
4478 SUNCREST DR,35.247932,-89.978231,"35.247932, -89.978231"
0 FRAYSER,35.216071,-89.989045,"35.216071, -89.989045"
388 W FLYNN RD,35.06597,-90.07703,"35.06597, -90.07703"
475 GEORGE RD,35.015148,-90.079952,"35.015148, -90.079952"
5055 S BOWERS RD,35.010391,-90.106857,"35.010391, -90.106857"
0 KEYSTONE - (REAR),35.240984,-89.950407,"35.240984, -89.950407"
264 E BULLINGTON AVE,35.10967,-90.053481,"35.10967, -90.053481"
1057 N TULLY ST,35.170149,-90.034854,"35.170149, -90.034854"
1499 S MCMILLAN ST,35.106141,-90.042828,"35.106141, -90.042828"
1626 MONSARRAT,35.103146,-90.065911,"35.103146, -90.065911"
MICHIGAN,35.103159,-90.057081,"35.103159, -90.057081"
98 E DEMPSTER AVE,35.085858,-90.059825,"35.085858, -90.059825"
2706 DWIGHT,35.085099,-89.972506,"35.085099, -89.972506"
850 HILTON ST,35.108813,-89.970307,"35.108813, -89.970307"
3099 MORNINGSIDE ST,35.210182,-90.039209,"35.210182, -90.039209"
1253 CANFIELD,35.213217,-90.022062,"35.213217, -90.022062"
0 FELTON,35.208812,-89.947491,"35.208812, -89.947491"
4537 MALONE RD,35.024524,-89.919975,"35.024524, -89.919975"
0 MURRELL,35.116927,-90.054452,"35.116927, -90.054452"
1009 S SEATTLE,35.118247,-90.002848,"35.118247, -90.002848"
0 MICHIGAN,35.10201,-90.057647,"35.10201, -90.057647"
0 N MCLEAN BLVD,35.161942,-89.996538,"35.161942, -89.996538"
3357 NORTHWOOD,35.13493,-89.949728,"35.13493, -89.949728"
1995 SWIFT,35.093163,-90.073785,"35.093163, -90.073785"
86 W DEMPSTER AVE,35.085961,-90.065858,"35.085961, -90.065858"
0 E DEMPSTER AVE,35.08452,-90.01789,"35.08452, -90.01789"
1348 CARROLTON,35.225552,-90.018559,"35.225552, -90.018559"
0 PINEDALE AVE,35.205355,-90.002221,"35.205355, -90.002221"
3699 SHOREHAM DR,35.047809,-89.894324,"35.047809, -89.894324"
0 BENDER,35.019343,-90.000957,"35.019343, -90.000957"
0 S BOXTOWN,35.051995,-90.126444,"35.051995, -90.126444"
1327 ADELAIDE ST,35.111191,-90.061566,"35.111191, -90.061566"
0 WALKER,35.119767,-90.04106,"35.119767, -90.04106"
1525 HUMBER ST,35.10551,-90.04568,"35.10551, -90.04568"
1544 S LAUDERDALE,35.104943,-90.043669,"35.104943, -90.043669"
0 HARRY,35.106442,-90.038926,"35.106442, -90.038926"
283 W ESSEX AVE,35.103737,-90.053,"35.103737, -90.053000"
1409 DORIS,35.101356,-90.015778,"35.101356, -90.015778"
847 HILTON,35.10883538,-89.97077047,"35.10883538, -89.97077047"
1750 S SUTTON DR,35.222632,-90.00532,"35.222632, -90.005320"
1726 CLEOFORD,35.226449,-90.006156,"35.226449, -90.006156"
3877 SYBIL,35.231402,-89.976777,"35.231402, -89.976777"
4819 HORN LAKE,35.01692484,-90.06866796,"35.01692484, -90.06866796"
0 KIRBY,35.05784,-89.846042,"35.05784, -89.846042"
0 AUTUMN AVE,35.151361,-90.020851,"35.151361, -90.020851"
114 E OLIVE AVE,35.110194,-90.058592,"35.110194, -90.058592"
1592 CARNEGIE,35.103607,-90.04319,"35.103607, -90.04319"
1592 GABAY,35.10351,-90.03952,"35.10351, -90.03952"
1654 N GAITHER ST,35.101615,-90.031084,"35.101615, -90.031084"
1801 CASTEX ST,35.098324,-90.070209,"35.098324, -90.070209"
169 W SILVERAGE AVE,35.098852,-90.068633,"35.098852, -90.068633"
0 CARNES,35.112305,-89.963131,"35.112305, -89.963131"
1300 TUNSTALL,35.1059507,-89.97993147,"35.1059507, -89.97993147"
1300 TUNSTALL STS,35.105951,-89.979931,"35.105951, -89.979931"
1593 CORNING AVE,35.22511,-90.010545,"35.22511, -90.010545"
1778 E THIRD GREEN DR,35.016806,-90.004301,"35.016806, -90.004301"
944 KNEY ST,35.165583,-90.022758,"35.165583, -90.022758"
91 LUCY AVE,35.11436,-90.059292,"35.114360, -90.059292"
1080 S LAUDERDALE,35.11771382,-90.04292291,"35.11771382, -90.04292291"
0 S MAIN,35.10183,-90.05804,"35.10183, -90.05804"
1092 E CHICAGO AVE,35.178442,-90.02045,"35.178442, -90.02045"
0 FAIROAKS,35.167569,-89.941863,"35.167569, -89.941863"
3048 COLEMAN,35.157116,-89.959206,"35.157116, -89.959206"
0 BROWER,35.107204,-89.953182,"35.107204, -89.953182"
1865 E PERSON AVE,35.099767,-90.000683,"35.099767, -90.000683"
0 MOUNTAIN TERRACE ST,35.21624,-89.98379,"35.21624, -89.98379"
0 NEW RALEIGH,35.1949596,-89.95147136,"35.1949596, -89.95147136"
694 WILLIAMS AVE,35.122407,-90.038849,"35.122407, -90.038849"
656 EDITH,35.116915,-90.040269,"35.116915, -90.040269"
1242 CANNON ST,35.112602,-90.016792,"35.112602, -90.016792"
2392 DOUGLASS,35.11072963,-89.98245966,"35.11072963, -89.98245966"
0 INGLE,35.100308,-90.069647,"35.100308, -90.069647"
286 E ESSEX,35.104066,-90.052895,"35.104066, -90.052895"
1608 MAY ST,35.180426,-89.990129,"35.180426, -89.990129"
1465 DAVIS,35.176529,-89.989212,"35.176529, -89.989212"
797 SEMMES ST,35.11031,-89.96174,"35.11031, -89.96174"
3172 S SAX RD,35.062164,-90.086566,"35.062164, -90.086566"
4477 SUNVALLEY,35.0264007,-90.1060602,"35.0264007, -90.1060602"
4399 S WEAVER,35.027853,-90.098801,"35.027853, -90.098801"
391 E TRIGG,35.11194,-90.049432,"35.111940, -90.049432"
1308 LATHAM,35.11185,-90.052055,"35.11185, -90.052055"
1223 SMITH AVE,35.174497,-90.016109,"35.174497, -90.016109"
1261 S WILLIE MITCHELL ST,35.11271,-90.04377,"35.11271, -90.04377"
839 E WALDORF AVE,35.105435,-90.034473,"35.105435, -90.034473"
1758 HUNTER,35.17021843,-89.9988164,"35.17021843, -89.9988164"
2319 NORMAN,35.17200771,-89.97988462,"35.17200771, -89.97988462"
0 ELDRIDGE,35.170274,-89.982791,"35.170274, -89.982791"
0 PERSON,35.10102,-90.01795,"35.10102, -90.01795"
93 MALLORY HEIGHTS,35.090807,-90.06004,"35.090807, -90.06004"
3792 MARVIN,35.229101,-89.994561,"35.229101, -89.994561"
4440 SUNCREST DR,35.24695,-89.97821,"35.24695, -89.97821"
0 S BASIL LN,35.033981,-90.064808,"35.033981, -90.064808"
0 ALLEN RD,35.21774,-89.94976,"35.21774, -89.94976"
126 E TRIGG,35.112657,-90.058094,"35.112657, -90.058094"
0 WALKER,35.1193698,-90.02375882,"35.1193698, -90.02375882"
2046 LAMAR AVE,35.112653,-89.994486,"35.112653, -89.994486"
1514 S CARNEGIE,35.10576835,-90.0431016,"35.10576835, -90.0431016"
1620 S ELY,35.10273,-90.041925,"35.10273, -90.041925"
308 W INGLE,35.100827,-90.072895,"35.100827, -90.072895"
1783 BISMARK ST,35.09894,-90.07191,"35.09894, -90.07191"
2192 ELDRIDGE,35.171116,-89.984104,"35.171116, -89.984104"
2203 CLARKSDALE,35.17741061,-89.98353939,"35.17741061, -89.98353939"
2413 E ELDRIDGE AVE,35.16998,-89.97676,"35.16998, -89.97676"
3100 CHELSEA AVE,35.17384,-89.956909,"35.173840, -89.956909"
2451 PARK AVE,35.108134,-89.98049,"35.108134, -89.98049"
3075 GREEN ST,35.064774,-90.085639,"35.064774, -90.085639"
0 S LAKEVIEW,35.00564546,-90.10386916,"35.00564546, -90.10386916"
3776 CAMBRIDGE STATION DR,35.045704,-89.887015,"35.045704, -89.887015"
1381 KENTUCKY ST,35.10966,-90.063692,"35.109660, -90.063692"
680 BOSTON ST,35.113604,-89.973692,"35.113604, -89.973692"
319 MODDER,35.098109,-90.073407,"35.098109, -90.073407"
1656 CARPENTER,35.17779548,-89.96274846,"35.17779548, -89.96274846"
1471 LAKE GROVE ST,35.172533,-89.961608,"35.172533, -89.961608"
488 LONGVIEW,35.090417,-90.046807,"35.090417, -90.046807"
1015 CARROLTON RD,35.225305,-90.03001,"35.225305, -90.03001"
4431 RYAN ST,35.246683,-89.976911,"35.246683, -89.976911"
621 W PEEBLES,35.06666734,-90.08486317,"35.06666734, -90.08486317"
152 HORN LAKE CV,35.01219,-90.06915,"35.01219, -90.06915"
3727 S WEST MART,35.0473826,-90.0504559,"35.0473826, -90.0504559"
0 EMMONS,35.20743,-89.950634,"35.20743, -89.950634"
273 EDITH AVE,35.116682,-90.053085,"35.116682, -90.053085"
1092 ARNOLD PL,35.117342,-90.041792,"35.117342, -90.041792"
2465 CABLE AVE,35.111636,-89.980017,"35.111636, -89.980017"
1904 LAMAR,35.115465,-89.998855,"35.115465, -89.998855"
0 MACK,35.102931,-90.039189,"35.102931, -90.039189"
1587 PATTON ST,35.104015,-90.054156,"35.104015, -90.054156"
0 LOUISVILLE ST,35.175897,-90.020472,"35.175897, -90.020472"
1430 LAMBERT,35.17536389,-89.98212798,"35.17536389, -89.98212798"
2223 CURRY,35.17979634,-89.98277612,"35.17979634, -89.98277612"
144 FRANK W.,35.09096,-90.06767,"35.09096, -90.06767"
0 TRUMAN,35.174937,-89.920722,"35.174937, -89.920722"
703 W NONCONNAH,35.06349893,-90.08777628,"35.06349893, -90.08777628"
703 W NONCONNAH RD,35.063499,-90.087776,"35.063499, -90.087776"
0 W MITCHELL,35.05518885,-90.09015769,"35.05518885, -90.09015769"
876 W EYERS,35.05613522,-90.08161855,"35.05613522, -90.08161855"
819 HENDERSON,35.12475096,-90.04359291,"35.12475096, -90.04359291"
1373 S COOPER ST,35.108182,-89.992698,"35.108182, -89.992698"
0 E SOUTHERN,35.115703,-89.995852,"35.115703, -89.995852"
1510 PRESTON,35.105994,-90.050111,"35.105994, -90.050111"
1501 S MILLER ST,35.106076,-90.041661,"35.106076, -90.041661"
1477 WEBB,35.10667,-90.03878,"35.10667, -90.03878"
0 BEECHMONT,35.203051,-90.001695,"35.203051, -90.001695"
3030 S TRAVIS RD,35.066142,-90.083304,"35.066142, -90.083304"
902 MT PISGAH RD,35.050669,-90.09408,"35.050669, -90.094080"
3390 PLUM,35.195746,-89.950602,"35.195746, -89.950602"
3328 CYPRESS,35.19705,-89.952678,"35.19705, -89.952678"
0 ALLEN,35.243108,-89.951126,"35.243108, -89.951126"
1329 GLEASON AVE,35.110701,-90.018104,"35.110701, -90.018104"
0 ORGILL AVE,35.113162,-90.018919,"35.113162, -90.018919"
1620 LATHAM,35.103025,-90.051402,"35.103025, -90.051402"
0 GABAY,35.105487,-90.039841,"35.105487, -90.039841"
1827 S BISMARK,35.097624,-90.071955,"35.097624, -90.071955"
1656 CARPENTER ST,35.177795,-89.962748,"35.177795, -89.962748"
1460 ELOISE RD,35.086355,-90.014233,"35.086355, -90.014233"
2370 DEADRICK ST,35.10522,-89.98377,"35.10522, -89.98377"
1197 S MARGARET,35.00917422,-90.10345704,"35.00917422, -90.10345704"
4542 WHITE OWL,35.24995245,-89.9337133,"35.24995245, -89.9337133"
1223 SMITH,35.174504,-90.016115,"35.174504, -90.016115"
1592 CARNEGIE ST,35.103607,-90.04319,"35.103607, -90.04319"
1504 S MCMILLAN,35.10599896,-90.042315,"35.10599896, -90.042315"
1226 SMITH,35.17481475,-90.01601238,"35.17481475, -90.01601238"
2110 CLARKSDALE AVE,35.177927,-89.986735,"35.177927, -89.986735"
2359 CHELSEA,35.174337,-89.978447,"35.174337, -89.978447"
0 Southern,35.116081,-89.965696,"35.116081, -89.965696"
2116 GOFF AVE,35.10124,-89.992296,"35.101240, -89.992296"
851 BALTIMORE,35.10879228,-89.97314855,"35.10879228, -89.97314855"
922 JOEL AVE,35.220967,-90.033471,"35.220967, -90.033471"
4249 ARGONNE ST,35.241941,-89.995989,"35.241941, -89.995989"
324 W ELDER RD,35.054936,-90.074901,"35.054936, -90.074901"
4649 HUCKLEBERRY,35.02159478,-90.04803818,"35.02159478, -90.04803818"
1158 S MARGARET RD,35.010985,-90.102905,"35.010985, -90.102905"
4554 WHITE OWL,35.25008059,-89.93308046,"35.25008059, -89.93308046"
939 BREEDLOVE,35.16536921,-90.02227199,"35.16536921, -90.02227199"
0 MARIANNA,35.11461009,-89.97090071,"35.11461009, -89.97090071"
28 W LUCCA AVE,35.103101,-90.063446,"35.103101, -90.063446"
0 N MERCHANT ST,35.17057,-90.001295,"35.17057, -90.001295"
2220 CLAYTON,35.177081,-89.98301,"35.177081, -89.98301"
1514 RAYNER,35.104912,-90.011357,"35.104912, -90.011357"
49 GAGE W.,35.087396,-90.064615,"35.087396, -90.064615"
35 W FRANK,35.090401,-90.064084,"35.090401, -90.064084"
220 DIXIE RD,35.064448,-90.071412,"35.064448, -90.071412"
688 E KING,35.061012,-90.087023,"35.061012, -90.087023"
0 OAK,35.024757,-90.079114,"35.024757, -90.079114"
948 E TRIGG AVE,35.11205,-90.031068,"35.112050, -90.031068"
90 E UTAH AVE,35.113345,-90.059293,"35.113345, -90.059293"
580 WILLIAMS AVE,35.12257,-90.04251,"35.12257, -90.04251"
555 WICKS,35.121034,-90.043469,"35.121034, -90.043469"
148 W INGLE AVE,35.100613,-90.067817,"35.100613, -90.067817"
0 COKER ST,35.173184,-90.018938,"35.173184, -90.018938"
1418 BRITTON,35.17514976,-89.98740794,"35.17514976, -89.98740794"
2380 DEXTER,35.16835364,-89.97795559,"35.16835364, -89.97795559"
2145 GOFF,35.10089,-89.9914,"35.10089, -89.9914"
3988 ELLISTON RD,35.08541,-89.929484,"35.08541, -89.929484"
0 GEORGE ST,35.015148,-90.079952,"35.015148, -90.079952"
0,35.252672,-89.802168,"35.252672, -89.802168"
391 E TRIGG,35.11177,-90.04944,"35.11177, -90.04944"
661 JENNETTE,35.118278,-90.040103,"35.118278, -90.040103"
1605 HOLLYWOOD,35.17995065,-89.97558733,"35.17995065, -89.97558733"
2267 ELDRIDGE,35.170196,-89.981665,"35.170196, -89.981665"
2389 HUNTER,35.169366,-89.977531,"35.169366, -89.977531"
1029 RICHERT,35.16424444,-89.97969792,"35.16424444, -89.97969792"
0 MCADOO,35.140311,-89.960289,"35.140311, -89.960289"
0 SOUTH AVE,35.103206,-90.014578,"35.103206, -90.014578"
1468 S RAYNER ST,35.10614,-90.01131,"35.10614, -90.01131"
112 W TEMPLE AVE,35.090343,-90.066659,"35.090343, -90.066659"
651 GLANKLER,35.150257,-89.962634,"35.150257, -89.962634"
2051 DUPONT AVE,35.19689,-89.99816,"35.19689, -89.99816"
677 W KING RD,35.060461,-90.086525,"35.060461, -90.086525"
283 BULLINGTON AVE,35.10921,-90.053075,"35.10921, -90.053075"
0 CAMBRIDGE,35.11348,-90.050588,"35.11348, -90.050588"
0 KRAYER ST,35.114653,-90.036121,"35.114653, -90.036121"
0 HEISKELL,35.12625,-90.034576,"35.126250, -90.034576"
1499 S LELAND,35.1058861,-90.03582642,"35.1058861, -90.03582642"
198 W SILVERAGE,35.099274,-90.069322,"35.099274, -90.069322"
0 (SEE NOTES),35.168779,-89.997107,"35.168779, -89.997107"
0 LEDGER,35.094346,-90.017207,"35.094346, -90.017207"
0 RUGBY PL,35.206201,-90.001236,"35.206201, -90.001236"
115 W PEEBLES RD,35.066217,-90.067816,"35.066217, -90.067816"
4714 TARKINGTON DR,35.19762,-89.90624,"35.19762, -89.90624"
0 S PRESTON,35.10944058,-90.05058013,"35.10944058, -90.05058013"
1207 SYLVAN,35.172265,-90.016797,"35.172265, -90.016797"
621 JENNETTE PL,35.118391,-90.04134,"35.118391, -90.041340"
1269 CAPITAL,35.17504102,-90.01458088,"35.17504102, -90.01458088"
2400 HUBBARD,35.17387,-89.97711,"35.17387, -89.97711"
508 S LONGVIEW,35.090966,-90.046203,"35.090966, -90.046203"
687 TILLMAN,35.151191,-89.961697,"35.151191, -89.961697"
1626 ROBIN HOOD LN,35.087171,-89.939064,"35.087171, -89.939064"
4602 WHITE OWL,35.251447,-89.932285,"35.251447, -89.932285"
892 SAXON,35.117644,-90.032329,"35.117644, -90.032329"
571 WICKS,35.12103,-90.042922,"35.12103, -90.042922"
1647 OAKWOOD,35.181112,-89.976732,"35.181112, -89.976732"
0 S MAIN ST,35.0853,-90.05858,"35.0853, -90.05858"
0 HEATHER,35.08498298,-89.9386504,"35.08498298, -89.9386504"
1060 MARECHALNEIL,35.10720278,-89.97909343,"35.10720278, -89.97909343"
811 HILTON,35.10989,-89.970758,"35.10989, -89.970758"
4714 BERTA RD,35.019845,-90.045047,"35.019845, -90.045047"
4380 OPORTUNITY RD,35.029331,-90.116135,"35.029331, -90.116135"
3904 OLD ALLEN RD,35.232319,-89.948435,"35.232319, -89.948435"
3042 SHANNON,35.180561,-89.958648,"35.180561, -89.958648"
2085 SWIFT,35.090708,-90.0739,"35.090708, -90.0739"
180 W DAVANT AVE,35.089042,-90.068918,"35.089042, -90.068918"
111 E DEMPSTER,35.08529891,-90.05929313,"35.08529891, -90.05929313"
0 CINCINNATI ST,35.094601,-90.013737,"35.094601, -90.013737"
807 BUNTYN ST,35.11003,-89.97233,"35.11003, -89.97233"
2449 HARGROVE AVE,35.217168,-89.981849,"35.217168, -89.981849"
4412 S SUNVALLEY DR,35.028337,-90.105466,"35.028337, -90.105466"
0 PITTMAN,35.01705,-90.11539,"35.01705, -90.11539"
0 ROLLING WOODS,35.206703,-89.946058,"35.206703, -89.946058"
4586 WHITE OWL,35.250842,-89.932314,"35.250842, -89.932314"
3893 WHITE OWL,35.25284941,-89.9340339,"35.25284941, -89.9340339"
360 LACLEDE,35.11902906,-90.05005815,"35.11902906, -90.05005815"
408 E TRIGG AVE,35.112537,-90.048729,"35.112537, -90.048729"
1609 GAITHER ST,35.102845,-90.031697,"35.102845, -90.031697"
0 HOLLYWOOD,35.18108454,-89.97485122,"35.18108454, -89.97485122"
1648 CARPENTER,35.17757037,-89.96276922,"35.17757037, -89.96276922"
3005 SHANNON,35.18023,-89.95987,"35.18023, -89.95987"
0 SHANNON,35.180433,-89.960952,"35.180433, -89.960952"
0 SILVER,35.104934,-90.012265,"35.104934, -90.012265"
1425 ROBERTS,35.09521,-90.01527,"35.09521, -90.01527"
0 CINCINNATI,35.100258,-90.013283,"35.100258, -90.013283"
930 CALVIN RD,35.053117,-90.095038,"35.053117, -90.095038"
0 E PERSON,35.101288,-90.038886,"35.101288, -90.038886"
2366 DEVOY,35.165196,-89.978508,"35.165196, -89.978508"
2469 SHASTA AVE,35.16878,-89.974901,"35.16878, -89.974901"
1603 CASTALIA,35.10181,-89.99507,"35.10181, -89.99507"
2721 JEFFREY AVE,35.090157,-89.972384,"35.090157, -89.972384"
1489 GILL,35.10727,-90.01284,"35.10727, -90.01284"
1565 OBERLE,35.201344,-90.011496,"35.201344, -90.011496"
0 HAISCH RD,35.249553,-89.981873,"35.249553, -89.981873"
0 GLEN AVE,35.200314,-89.999959,"35.200314, -89.999959"
362 W DIXIE,35.064836,-90.076103,"35.064836, -90.076103"
1158 MARGARET RD,35.010984,-90.102905,"35.010984, -90.102905"
4578 WHITE OWL,35.250601,-89.932305,"35.250601, -89.932305"
241 SIMPSON AVE,35.114891,-90.054203,"35.114891, -90.054203"
965 CLACK,35.120816,-90.045264,"35.120816, -90.045264"
1180 AZALIA,35.114702,-90.028695,"35.114702, -90.028695"
1701 KERR,35.105975,-90.005662,"35.105975, -90.005662"
1645 PRESTON ST,35.102278,-90.050907,"35.102278, -90.050907"
1603 May,35.18034069,-89.99069579,"35.18034069, -89.99069579"
2220 GRIGGS AVE,35.17628,-89.983054,"35.176280, -89.983054"
0 SHASTA AVE,35.168762,-89.981232,"35.168762, -89.981232"
0 ETHLYN,35.104333,-90.01672,"35.104333, -90.016720"
1367 GOLD,35.103607,-90.017026,"35.103607, -90.017026"
1342 DORIS,35.101855,-90.017952,"35.101855, -90.017952"
1514 RAYNER ST,35.104912,-90.011357,"35.104912, -90.011357"
3035 LOUNETTE,35.081779,-89.961545,"35.081779, -89.961545"
1007 CRESTON AVE,35.226498,-90.030296,"35.226498, -90.030296"
0 TCHULAHOMA RD,35.024424,-89.953672,"35.024424, -89.953672"
1019 W EYERS RD,35.051168,-90.098044,"35.051168, -90.098044"
0 DELTA AVE,35.017792,-90.077662,"35.017792, -90.077662"
0 RAINES,35.03421,-90.05922,"35.03421, -90.05922"
0 EGYPT-CENTRAL RD,35.247012,-89.947112,"35.247012, -89.947112"
310 LUCY AVE,35.114416,-90.051949,"35.114416, -90.051949"
335 E LUCY,35.113898,-90.051188,"35.113898, -90.051188"
1146 RYDER,35.1213,-90.023621,"35.121300, -90.023621"
785 INEZ ST,35.110684,-89.965764,"35.110684, -89.965764"
1644 LATHAM,35.102334,-90.051423,"35.102334, -90.051423"
1508 S MCMILLAN,35.105798,-90.042458,"35.105798, -90.042458"
1587 S ORLEANS,35.10369314,-90.04096571,"35.10369314, -90.04096571"
0 HERNANDO,35.09332,-90.02549,"35.09332, -90.02549"
292 W DISON,35.101514,-90.072377,"35.101514, -90.072377"
187 W DISON,35.100987,-90.069011,"35.100987, -90.069011"
2208 CLAYTON,35.177084,-89.983416,"35.177084, -89.983416"
0 HIGHLAND PARK,35.137256,-89.955946,"35.137256, -89.955946"
2116 FARRINGTON,35.08991,-90.0743,"35.08991, -90.0743"
122 W. FRANK,35.091029,-90.066905,"35.091029, -90.066905"
1393 KIMBALL AVE,35.096593,-90.01654,"35.096593, -90.016540"
1460 CARLTON,35.076246,-90.014034,"35.076246, -90.014034"
2731 SELECT AVE,35.106014,-89.97129,"35.106014, -89.97129"
0 King,35.060467,-90.087023,"35.060467, -90.087023"
934 S KNIGHT,35.121436,-90.038501,"35.121436, -90.038501"
283 MODDER AVE,35.09802,-90.07215,"35.09802, -90.07215"
2950 E ALCORN,35.148074,-89.962749,"35.148074, -89.962749"
4244 BARR AVE,35.08181,-89.92063,"35.08181, -89.92063"
817 JULIET AVE,35.21399,-90.03659,"35.213990, -90.036590"
1565 OBERLE AVE,35.201337,-90.01149,"35.201337, -90.011490"
4462 RACHAEL RD,35.247479,-89.980992,"35.247479, -89.980992"
0 RANGE LINE RD,35.22883,-89.97517,"35.22883, -89.97517"
0 MILLBRANCH,34.997915,-90.00854,"34.997915, -90.00854"
3620 S COOK,35.050114,-90.109661,"35.050114, -90.109661"
258 GASTON,35.118107,-90.053514,"35.118107, -90.053514"
1080 SHAW PL,35.117584,-90.039171,"35.117584, -90.039171"
726 BULLINGTON AVE,35.109393,-90.038151,"35.109393, -90.038151"
1651 EUCLID AVE,35.120921,-90.007044,"35.120921, -90.007044"
2424 FORREST,35.150142,-89.978269,"35.150142, -89.978269"
1635 S BARTON ST,35.102798,-90.056708,"35.102798, -90.056708"
0 RAYBURN ST,35.10521,-90.05485,"35.10521, -90.05485"
1581 BRITTON ST,35.179718,-89.987806,"35.179718, -89.987806"
3021 MT OLIVE RD,35.174941,-89.959494,"35.174941, -89.959494"
3046 MT OLIVE,35.175416,-89.958627,"35.175416, -89.958627"
1348 E PERSON,35.10110985,-90.0178221,"35.10110985, -90.0178221"
4345 S THIRD,35.03019054,-90.07898539,"35.03019054, -90.07898539"
4995 FORD,35.01215,-90.08225,"35.01215, -90.08225"
4553 WHITE OWL,35.25033967,-89.93332762,"35.25033967, -89.93332762"
269 ALSTON,35.123356,-90.052911,"35.123356, -90.052911"
0 W UTAH AVE,35.113749,-90.071932,"35.113749, -90.071932"
147 E UTAH AVE,35.112897,-90.057403,"35.112897, -90.057403"
114 E FARROW AVE,35.114072,-90.058489,"35.114072, -90.058489"
105 INGLE AVE,35.100162,-90.066239,"35.100162, -90.066239"
1642 S MICHIGAN ST,35.102539,-90.057104,"35.102539, -90.057104"
2156 CLAYTON,35.177128,-89.985146,"35.177128, -89.985146"
0 WINNONA,35.16677,-89.973325,"35.16677, -89.973325"
0 REESE,35.118281,-89.950538,"35.118281, -89.950538"
0 WEAVER RD,35.053706,-90.096354,"35.053706, -90.096354"
4580 WHITE OWL LN,35.25066,-89.93231,"35.25066, -89.93231"
295 BOND,35.108306,-90.052598,"35.108306, -90.052598"
257 E TRIGG,35.11205,-90.05378,"35.11205, -90.05378"
829 PORTER ST,35.124294,-90.036877,"35.124294, -90.036877"
778 MARECHALNEIL ST,35.111026,-89.979274,"35.111026, -89.979274"
1650 S ORLEANS,35.102017,-90.040556,"35.102017, -90.040556"
2989 MT. OLIVE,35.17506,-89.96056,"35.17506, -89.96056"
0 CARTER,35.14732,-89.92886,"35.14732, -89.92886"
1730 DUPONT,35.196754,-90.006173,"35.196754, -90.006173"
0 RALEIGH MILLINGTON RD,35.217926,-89.926849,"35.217926, -89.926849"
1050 BEACH ST,35.118194,-90.031572,"35.118194, -90.031572"
1362 ADELAIDE,35.110286,-90.061122,"35.110286, -90.061122"
0 S ORLEANS,35.113726,-90.040754,"35.113726, -90.040754"
1609 RAGAN ST,35.102248,-90.010386,"35.102248, -90.010386"
0 MEAGHER,35.161471,-89.972909,"35.161471, -89.972909"
1886 PORTLAND AVE,35.20385,-90.001,"35.20385, -90.001"
0 WRIGHT ST,35.127982,-90.047958,"35.127982, -90.047958"
392 E MCLEMORE,35.116195,-90.049138,"35.116195, -90.049138"
0 HEISKELL PL,35.126248,-90.034651,"35.126248, -90.034651"
1668 S MILLER,35.101467,-90.041315,"35.101467, -90.041315"
747 ORANGE AVE,35.104385,-90.037523,"35.104385, -90.037523"
1587 FLORIDA ST,35.10415,-90.06291,"35.10415, -90.06291"
1632 S MAIN,35.103492,-90.057586,"35.103492, -90.057586"
0 COKER,35.173184,-90.018938,"35.173184, -90.018938"
0 N DAVIS ST,35.175461,-89.988572,"35.175461, -89.988572"
2144 CLAYTON,35.1771289,-89.9856936,"35.1771289, -89.9856936"
0 SHANNON,35.180115,-89.9596,"35.180115, -89.959600"
2974 CALVERT,35.179792,-89.960813,"35.179792, -89.960813"
876 INEZ ST,35.108199,-89.964817,"35.108199, -89.964817"
2535 W BALL RD,35.075928,-90.033979,"35.075928, -90.033979"
4980 HWY 61 S,35.012435,-90.095565,"35.012435, -90.095565"
1339 GLENN,35.110532,-90.045375,"35.110532, -90.045375"
0 JAMES ST,35.111833,-90.02364,"35.111833, -90.02364"
1089 ATLANTIC,35.16194,-89.952352,"35.16194, -89.952352"
3185 CRUMP,35.162187,-89.954282,"35.162187, -89.954282"
1500 S WILLETT ST,35.105292,-90.010389,"35.105292, -90.010389"
2359 PECAN CIR.,35.08171,-89.98439,"35.08171, -89.98439"
1017 ETHEL,35.107588,-89.98358,"35.107588, -89.98358"
0 PIONEER,35.113807,-90.071557,"35.113807, -90.071557"
619 JENNETTE,35.11839453,-90.04147477,"35.11839453, -90.04147477"
895 GRIFFITH AVE,35.16134,-90.02809,"35.16134, -90.02809"
1173 N EVERGREEN ST,35.170131,-90.000544,"35.170131, -90.000544"
357 OUTER PKWY,35.093859,-90.074882,"35.093859, -90.074882"
130 GAGE E.,35.08772,-90.05867,"35.08772, -90.05867"
4592 KERWIN,35.25116982,-89.93368194,"35.25116982, -89.93368194"
1039 LAGRANGE AVE,35.15806,-90.0238,"35.15806, -90.0238"
1066 S ORLEANS,35.11800457,-90.04067701,"35.11800457, -90.04067701"
1146 RYDER,35.121307,-90.023626,"35.121307, -90.023626"
1128 JAMES ST,35.115916,-90.022671,"35.115916, -90.022671"
1249 AIRWAYS BLVD,35.11141,-89.98514,"35.11141, -89.98514"
0 PATTON,35.104108,-90.054153,"35.104108, -90.054153"
1091 FIRESTONE,35.1739552,-90.0205252,"35.1739552, -90.0205252"
1332 STONEWALL ST,35.17491,-90.0064,"35.17491, -90.0064"
0 N STANDRIDGE ST,35.181597,-89.971503,"35.181597, -89.971503"
0 W DAVANT,35.089058,-90.069628,"35.089058, -90.069628"
196 W FRANK AVE,35.090935,-90.069287,"35.090935, -90.069287"
4487 RACHEL RD,35.24823,-89.98186,"35.24823, -89.98186"
0 RAINES,35.034321,-90.059335,"35.034321, -90.059335"
0 PITTMAN,35.01742,-90.11521,"35.01742, -90.11521"
410 E LACLEDE,35.118999,-90.048369,"35.118999, -90.048369"
0 N MONTGOMERY ST,35.161197,-90.016857,"35.161197, -90.016857"
490 E OLIVE,35.110437,-90.045972,"35.110437, -90.045972"
1126 E WALKER,35.11938399,-90.02440365,"35.11938399, -90.02440365"
1325 E TRIGG AVE,35.111327,-90.018137,"35.111327, -90.018137"
1128 N HOLMES,35.162952,-89.950727,"35.162952, -89.950727"
0 N WATKINS,35.17558,-90.008071,"35.17558, -90.008071"
0 CARTER,35.14732,-89.92886,"35.14732, -89.92886"
50 MALLORY W.,35.086956,-90.064661,"35.086956, -90.064661"
55 E MALLORY AVE,35.086335,-90.061176,"35.086335, -90.061176"
0 MCCORKLE,35.02182831,-90.03850097,"35.02182831, -90.03850097"
1419 HORACE ST,35.108626,-90.059577,"35.108626, -90.059577"
0 GRAND,35.111314,-89.982293,"35.111314, -89.982293"
331 W BURDOCK AVE,35.105824,-90.073545,"35.105824, -90.073545"
2562 MALONE,35.09936085,-89.97740072,"35.09936085, -89.97740072"
0 ETHLYN,35.104912,-90.014093,"35.104912, -90.014093"
0 PERSHING,35.153881,-89.970752,"35.153881, -89.970752"
2389 LINDBERGH RD,35.08019,-89.98698,"35.08019, -89.98698"
4372 RYAN ST,35.245022,-89.976337,"35.245022, -89.976337"
0 DENVER,35.214806,-89.995275,"35.214806, -89.995275"
1253 N MARGARET RD,35.007717,-90.105691,"35.007717, -90.105691"
0 S CORO RD,35.01831,-90.1152,"35.01831, -90.1152"
0 ELMORE,35.186625,-89.894577,"35.186625, -89.894577"
4546 WHITE OWL,35.249957,-89.933608,"35.249957, -89.933608"
4127 STORMY ST ST,35.238463,-89.933836,"35.238463, -89.933836"
0 BUFORD AVE,35.342179,-89.899443,"35.342179, -89.899443"
1054 LAGRANGE AVE,35.158369,-90.023246,"35.158369, -90.023246"
1571 PATTON,35.10450269,-90.05413735,"35.10450269, -90.05413735"
447 N GLANKLER ST,35.144559,-89.962773,"35.144559, -89.962773"
1230 E SMITH AVE,35.174812,-90.01588,"35.174812, -90.01588"
2969 SHANNON AVE,35.180145,-89.961072,"35.180145, -89.961072"
1521 WILLIS,35.173881,-89.953096,"35.173881, -89.953096"
3113 ALLISON AVE,35.14453,-89.95728,"35.14453, -89.95728"
INTERSTATE 40,35.1473,-89.92905,"35.1473, -89.92905"
1343 ETHLYN,35.104359,-90.017764,"35.104359, -90.017764"
1442 WABASH,35.102521,-90.014617,"35.102521, -90.014617"
2414 HOLLYFORD,35.079331,-89.988042,"35.079331, -89.988042"
817 MARIANNA ST,35.10974,-89.97155,"35.10974, -89.97155"
WOODLAWN TERRACE,35.20527,-89.99759,"35.20527, -89.99759"
391 W FLYNN RD,35.065364,-90.077233,"35.065364, -90.077233"
3070 S GREEN RD,35.065111,-90.084829,"35.065111, -90.084829"
3362 ALLEN,35.21742,-89.94892,"35.21742, -89.94892"
384 SIMPSON AVE,35.115151,-90.04954,"35.115151, -90.04954"
601 WELLS,35.17083967,-90.03677225,"35.17083967, -90.03677225"
1112 SAXON,35.117429,-90.024938,"35.117429, -90.024938"
0 JAMES,35.111833,-90.02364,"35.111833, -90.02364"
191 VAAL AVE,35.098213,-90.069143,"35.098213, -90.069143"
199 SILVERAGE,35.098886,-90.069427,"35.098886, -90.069427"
1224 LOUISVILLE AVE,35.176103,-90.016004,"35.176103, -90.016004"
1511 HARRISON ST,35.177494,-89.978006,"35.177494, -89.978006"
2348 E VANDALE AVE,35.167665,-89.979043,"35.167665, -89.979043"
0 FRAYSER,35.21686,-90.034682,"35.21686, -90.034682"
2442 HAISCH RD,35.24938,-89.98212,"35.24938, -89.98212"
0 WINDSOR PKWY.,35.201748,-89.997895,"35.201748, -89.997895"
4672 GARDEN WALK,35.253725,-89.93474,"35.253725, -89.93474"
3873 WHITE OWL,35.253473,-89.934489,"35.253473, -89.934489"
261 GASTON AVE,35.11776,-90.05339,"35.11776, -90.05339"
126 E TRIGG,35.112657,-90.058093,"35.112657, -90.058093"
932 N MANASSAS ST,35.16623,-90.03161,"35.16623, -90.03161"
715 NEPTUNE ST,35.127456,-90.03246,"35.127456, -90.032460"
1593 CAMERON ST,35.10371,-90.04966,"35.10371, -90.04966"
1501 S MILLER,35.10607623,-90.04166144,"35.10607623, -90.04166144"
1566 S MILLER ST,35.104281,-90.041069,"35.104281, -90.041069"
2248 E LYON AVE,35.17855,-89.98202,"35.17855, -89.98202"
2412 GOLDEN AVE,35.173159,-89.976735,"35.173159, -89.976735"
1551 DUNN,35.092335,-90.011259,"35.092335, -90.011259"
0 LYCEUM,35.096271,-90.014444,"35.096271, -90.014444"
0 WOODLARK AVE,35.0849,-89.894433,"35.0849, -89.894433"
3379 RINEY,35.217911,-90.006,"35.217911, -90.006"
0 W FIELDS RD,35.05032,-90.10387,"35.05032, -90.10387"
1609 MICHIGAN,35.103382,-90.057601,"35.103382, -90.057601"
2204 GRIGGS,35.176295,-89.983584,"35.176295, -89.983584"
2436 GOLDEN AVE,35.173132,-89.975929,"35.173132, -89.975929"
0 W DAVANT AVE,35.089058,-90.069628,"35.089058, -90.069628"
0 CALVIN RD,35.05273,-90.09294,"35.05273, -90.09294"
1454 FELIX,35.119926,-90.01375,"35.119926, -90.01375"
872 ALASKA ST,35.16258,-90.013393,"35.16258, -90.013393"
547 E MCLEMORE,35.115514,-90.043966,"35.115514, -90.043966"
947 GREENWOOD,35.12087,-90.02464,"35.120870, -90.024640"
0 IVORY AVE,35.172478,-90.036794,"35.172478, -90.036794"
0 E CHELSEA AVE,35.174306,-89.978,"35.174306, -89.978"
0 STANDRIDGE,35.17167695,-89.97166074,"35.17167695, -89.97166074"
1353 CLEMENTINE,35.07264129,-90.01808011,"35.07264129, -90.01808011"
4570 SUNNYBROOK ST,35.250198,-89.976942,"35.250198, -89.976942"
0 PINEDALE AVE,35.205176,-89.998092,"35.205176, -89.998092"
0 MART E.,35.04943,-90.05063,"35.04943, -90.05063"
896 S LAUDERDALE,35.122595,-90.044023,"35.122595, -90.044023"
588 HAMPTON PL,35.122012,-90.042339,"35.122012, -90.042339"
1326 ENGLEWOOD,35.11044,-90.025753,"35.11044, -90.025753"
1315 NIESE,35.110773,-90.027076,"35.110773, -90.027076"
1325 BRYAN ST,35.172218,-89.974631,"35.172218, -89.974631"
100 E DEMPSTER,35.085855,-90.059657,"35.085855, -90.059657"
1595 S PRESCOTT,35.08798711,-89.95020315,"35.08798711, -89.95020315"
0 RUGBY PL,35.20626,-90.003543,"35.20626, -90.003543"
3659 CHESTERWOOD,35.04894098,-89.9009436,"35.04894098, -89.9009436"
0 EYERS,35.051044,-90.09986,"35.051044, -90.09986"
4506 S BLUEBELL,35.025646,-90.095658,"35.025646, -90.095658"
3435 FRAYSER RALEIGH,35.22316615,-89.94899276,"35.22316615, -89.94899276"
0 NORTHHAVEN,35.261551,-90.041868,"35.261551, -90.041868"
871 DECATUR ST,35.16386,-90.02487,"35.16386, -90.02487"
1306 FLORIDA ST,35.111968,-90.061968,"35.111968, -90.061968"
1597 CAMERON,35.103554,-90.049671,"35.103554, -90.049671"
1728 S RIVERSIDE BLVD,35.100534,-90.075248,"35.100534, -90.075248"
1576 PATTON,35.104373,-90.053708,"35.104373, -90.053708"
278 ESSEX E.,35.104067,-90.053197,"35.104067, -90.053197"
286 E ESSEX,35.104065,-90.052895,"35.104065, -90.052895"
3277 HENRY,35.16001,-89.951289,"35.16001, -89.951289"
1493 STANDRIDGE,35.176768,-89.972148,"35.176768, -89.972148"
2400 MALONE AVE,35.102481,-89.98282,"35.102481, -89.982820"
4418 WILLOW RD,35.08607,-89.9147,"35.08607, -89.9147"
2447 CHATTERING LN,35.24082,-89.98233,"35.24082, -89.98233"
4495 BEACON HILL DR,35.248379,-89.977862,"35.248379, -89.977862"
3157 BROOKMEADE ST,35.211639,-89.980012,"35.211639, -89.980012"
675 W GILLEAS RD,35.06145,-90.086609,"35.06145, -90.086609"
989 LEWIS ST,35.16653,-90.01982,"35.16653, -90.01982"
1636 S ARKANSAS,35.102977,-90.070563,"35.102977, -90.070563"
113 E DOVE AVE,35.103296,-90.05872,"35.103296, -90.058720"
2283 HUBBARD AVE,35.17353,-89.98102,"35.17353, -89.98102"
2339 HUNTER,35.169408,-89.979264,"35.169408, -89.979264"
1217 E MALLORY,35.08528361,-90.02240152,"35.08528361, -90.02240152"
3182 BENJESTOWN RD,35.212464,-90.040758,"35.212464, -90.040758"
2045 DRIFTWOOD AVE,35.209692,-89.995648,"35.209692, -89.995648"
3868 EAGLE NEST,35.252994,-89.934608,"35.252994, -89.934608"
1080 S LAUDERDALE ST,35.117714,-90.042923,"35.117714, -90.042923"
213 W PERSON,35.101716,-90.069881,"35.101716, -90.069881"
1645 RAYBURN,35.102493,-90.054944,"35.102493, -90.054944"
2413 E ELDRIDGE AVE,35.170096,-89.976753,"35.170096, -89.976753"
0 RIDGEFIELD,35.125765,-89.942057,"35.125765, -89.942057"
0 FENWICK,35.132688,-89.96626,"35.132688, -89.96626"
0 W HOLLAND,35.09302,-90.071547,"35.093020, -90.071547"
2129 YAZOO,35.089325,-90.070902,"35.089325, -90.070902"
4387 RANGE LINE,35.2454352,-89.97596868,"35.2454352, -89.97596868"
0 HARAHAN AVE,35.063036,-90.087593,"35.063036, -90.087593"
0 E ALLEN RD,35.212718,-89.946585,"35.212718, -89.946585"
0 BEY,35.111246,-89.975886,"35.111246, -89.975886"
117 DOVER,35.102159,-90.05869,"35.102159, -90.05869"
3179 CRUMP,35.16207,-89.954467,"35.16207, -89.954467"
1238 MERCHANT ST,35.171841,-90.000803,"35.171841, -90.000803"
1496 DAVIS,35.177355,-89.988521,"35.177355, -89.988521"
0 WINNONA AVE,35.166764,-89.973319,"35.166764, -89.973319"
0 STANDRIDGE,35.181597,-89.971503,"35.181597, -89.971503"
0 HEARD,35.182133,-89.971218,"35.182133, -89.971218"
1626 ORR,35.17688824,-89.95433835,"35.17688824, -89.95433835"
0 NEW WILLOW - (REAR),35.087192,-89.926648,"35.087192, -89.926648"
850 GREENDALE,35.21537559,-90.03548213,"35.21537559, -90.03548213"
2197 ABERDEEN,35.233253,-89.990699,"35.233253, -89.990699"
0 MT TERRACE ST,35.234802,-89.98205,"35.234802, -89.982050"
534 W NONCONNAH RD,35.063975,-90.081925,"35.063975, -90.081925"
679 KING AV,35.06059,-90.08668,"35.06059, -90.08668"
0 CALVIN,35.05287,-90.089707,"35.05287, -90.089707"
0 N THOMAS ST,35.16738,-90.03652,"35.16738, -90.03652"
717 E TRIGG,35.11180758,-90.03844983,"35.11180758, -90.03844983"
1377 DOW PL,35.113131,-90.01628,"35.113131, -90.016280"
0 MACK,35.102931,-90.039189,"35.102931, -90.039189"
153 E MAJUBA,35.096841,-90.067971,"35.096841, -90.067971"
1147 E BAMMEL AVE,35.177311,-90.018555,"35.177311, -90.018555"
0 N MERCHANT ST,35.17015,-90.001309,"35.17015, -90.001309"
1368 HYDE PARK,35.17371,-89.984314,"35.17371, -89.984314"
1566 N TREZEVANT ST,35.178923,-89.979495,"35.178923, -89.979495"
1496 MAPLEWOOD ST,35.177081,-89.978541,"35.177081, -89.978541"
1442 CARLTON,35.07649482,-90.01473305,"35.07649482, -90.01473305"
4388 RYAN,35.245441,-89.97635,"35.245441, -89.97635"
0 LEWIS,35.162444,-90.019769,"35.162444, -90.019769"
0 WICKS,35.121172,-90.045881,"35.121172, -90.045881"
0 CUMMINGS,35.10794591,-90.0275388,"35.10794591, -90.0275388"
398 N CARPENTER ST,35.143177,-89.964135,"35.143177, -89.964135"
0 BAMMEL,35.177343,-90.020687,"35.177343, -90.020687"
1780 BELMONT,35.18511451,-89.97635245,"35.18511451, -89.97635245"
GILL,35.107766,-90.013153,"35.107766, -90.013153"
1468 SOUTH AVE,35.103185,-90.013739,"35.103185, -90.013739"
237 FIRST,35.09347,-90.07068,"35.09347, -90.07068"
4512 BEACON HILLS DR,35.248815,-89.977286,"35.248815, -89.977286"
1968 PINEDALE AVE,35.205868,-89.998052,"35.205868, -89.998052"
2877 CASCADE,35.204256,-89.994508,"35.204256, -89.994508"
0 MALONE RD,35.024508,-89.919514,"35.024508, -89.919514"
3004 MEADOWFAIR RD,35.0133,-89.96365,"35.0133, -89.96365"
1277 ENGLEWOOD ST,35.111792,-90.025687,"35.111792, -90.025687"
1490 HARLEM ST,35.10515,-90.001322,"35.105150, -90.001322"
0 HERNANDO,35.093303,-90.025495,"35.093303, -90.025495"
1609 GAITHER,35.102851,-90.031703,"35.102851, -90.031703"
1863 BISMARK,35.096634,-90.071987,"35.096634, -90.071987"
3264 HENRY,35.160539,-89.951909,"35.160539, -89.951909"
1119 E SAINT CHARLES AVE,35.17864,-90.01941,"35.17864, -90.01941"
1316 N HYDE PARK BLVD,35.172283,-89.984366,"35.172283, -89.984366"
1630 SUNSET ST,35.176966,-89.958958,"35.176966, -89.958958"
2412 TWAIN,35.09652659,-89.98269124,"35.09652659, -89.98269124"
263 W MCKELLAR AVE,35.089711,-90.071731,"35.089711, -90.071731"
0 STURGEON - (REAR),35.088516,-89.938695,"35.088516, -89.938695"
4243 DUNN RD,35.090093,-89.920558,"35.090093, -89.920558"
946 FLOYD AVE,35.223411,-90.03243,"35.223411, -90.03243"
4439 SUNNY VIEW,35.246911,-89.97965,"35.246911, -89.97965"
2436 HARGROVE AVE,35.217653,-89.982386,"35.217653, -89.982386"
0 W DELTA DR,35.008628,-90.123674,"35.008628, -90.123674"
1342 S LATHAM ST,35.110617,-90.051861,"35.110617, -90.051861"
0,35.15685,-90.02218,"35.15685, -90.02218"
1618 S ARKANSAS,35.103384,-90.070531,"35.103384, -90.070531"
262 W NORWOOD,35.09208163,-90.07158552,"35.09208163, -90.07158552"
0 WINDSOR PKWY,35.201748,-89.997895,"35.201748, -89.997895"
4750 SOUTHAVEN,35.018776,-90.084865,"35.018776, -90.084865"
3852 NEW COVINGTON PIKE,35.23079,-89.8916,"35.23079, -89.8916"
789 WALNUT ST,35.125414,-90.035612,"35.125414, -90.035612"
372 EDITH,35.11703,-90.04977,"35.11703, -90.04977"
0 AIRWAYS BLVD,35.111609,-89.98508,"35.111609, -89.98508"
947 SEATTLE,35.12003,-90.002761,"35.12003, -90.002761"
1473 N HYDE PARK BLVD,35.17666,-89.98444,"35.17666, -89.98444"
1516 ASH,35.173715,-89.953512,"35.173715, -89.953512"
0 HAZELWOOD,35.169735,-89.941061,"35.169735, -89.941061"
1828 WILDROSE ST,35.081772,-89.961539,"35.081772, -89.961539"
1440 CLEMENTINE RD,35.073816,-90.014749,"35.073816, -90.014749"
1882 PINEDALE AVE,35.205966,-90.000903,"35.205966, -90.000903"
0,35.059132,-89.916751,"35.059132, -89.916751"
0 HEWLETT,35.0166,-90.08132,"35.0166, -90.08132"
0 S LAKEVIEW RD,35.005645,-90.103869,"35.005645, -90.103869"
N ROWLETT ST,35.044559,-89.685151,"35.044559, -89.685151"
0 E UTAH,35.113347,-90.061022,"35.113347, -90.061022"
1508 S MCMILLAN,35.105895,-90.042451,"35.105895, -90.042451"
1811 PENNSYLVANIA,35.09801405,-90.06775412,"35.09801405, -90.06775412"
0 PATTON,35.102929,-90.05378,"35.102929, -90.05378"
0 STATEN,35.166328,-89.978734,"35.166328, -89.978734"
2502 WINNONA,35.166773,-89.973921,"35.166773, -89.973921"
2962 THRUSH,35.176225,-89.961506,"35.176225, -89.961506"
635 E GAGE,35.086999,-90.041971,"35.086999, -90.041971"
4887 WINCHESTER RD,35.05055,-89.90054,"35.05055, -89.90054"
0 CALVIN RD,35.05287,-90.089707,"35.052870, -90.089707"
917 MT. PISGAH,35.050108,-90.09462,"35.050108, -90.09462"
1197 S MARGARET RD,35.009174,-90.103457,"35.009174, -90.103457"
0 WARFORD ST,35.203301,-89.956391,"35.203301, -89.956391"
887 LATHAM,35.123192,-90.052401,"35.123192, -90.052401"
606 WALKER AVE,35.11975,-90.04176,"35.11975, -90.04176"
0 SPRINGDALE,35.175623,-89.983623,"35.175623, -89.983623"
1186 N HIGHLAND ST,35.16449,-89.94329,"35.16449, -89.94329"
1295 E BARRON CIR,35.09637,-89.9365,"35.09637, -89.9365"
2562 DONALD RD,35.075338,-90.010135,"35.075338, -90.010135"
1873 DRIFTWOOD AVE,35.209912,-90.001394,"35.209912, -90.001394"
3620 COOK,35.050108,-90.109655,"35.050108, -90.109655"
1048 W CAREY,35.04870302,-90.09910751,"35.04870302, -90.09910751"
5340 S CESSNA RD,35.002827,-90.107827,"35.002827, -90.107827"
5041 CARTERVILLE PL,35.263451,-90.03459,"35.263451, -90.03459"
0 FIRESTONE,35.17389719,-90.01543537,"35.17389719, -90.01543537"
714 S PENDLETON ST,35.112513,-89.969858,"35.112513, -89.969858"
1914 SWIFT,35.095356,-90.073203,"35.095356, -90.073203"
1470 ORR,35.17248,-89.954483,"35.17248, -89.954483"
1426 KIMBALL AVE,35.09687,-90.01537,"35.09687, -90.01537"
3379 RINEY ST,35.217911,-90.006,"35.217911, -90.006000"
4823 HWY. 61,35.017646,-90.092754,"35.017646, -90.092754"
3900 DAFFODIL CV,35.252086,-89.933673,"35.252086, -89.933673"
1424 SARDIS ST,35.10835,-90.04886,"35.10835, -90.04886"
1391 MICHIGAN,35.10944212,-90.05882828,"35.10944212, -90.05882828"
486 E OLIVE,35.110445,-90.046266,"35.110445, -90.046266"
1197 WILSON ST,35.113948,-90.018633,"35.113948, -90.018633"
257 MUNFORD AVE,35.103206,-90.05377,"35.103206, -90.053770"
715 SEXTON,35.173181,-90.033066,"35.173181, -90.033066"
2400 MALONE,35.102487,-89.982826,"35.102487, -89.982826"
2731 BYRD AVE,35.083697,-89.971581,"35.083697, -89.971581"
0 BEECHMONT,35.200916,-90.003718,"35.200916, -90.003718"
1405 HEMLOCK ST,35.108213,-90.02298,"35.108213, -90.02298"
1526 PRESTON,35.10558,-90.050129,"35.10558, -90.050129"
1541 MILLER ST,35.10496,-90.04158,"35.10496, -90.04158"
0 W PERSON AVE,35.10208,-90.07038,"35.10208, -90.07038"
1607 S FLORIDA,35.103522,-90.062993,"35.103522, -90.062993"
0 CHELSEA,35.174306,-89.978,"35.174306, -89.978"
2116 GOFF,35.10123982,-89.992296,"35.10123982, -89.992296"
1500 S WILLETT,35.105292,-90.010389,"35.105292, -90.010389"
0 W DAVANT,35.08905,-90.069252,"35.089050, -90.069252"
2706 DWIGHT RD,35.085092,-89.9725,"35.085092, -89.972500"
0 THE OAKS,35.201675,-90.002869,"35.201675, -90.002869"
675 W HARAHAN AVE,35.062445,-90.086641,"35.062445, -90.086641"
728 W KING RD,35.061026,-90.088356,"35.061026, -90.088356"
665 W KING,35.06045813,-90.08619822,"35.06045813, -90.08619822"
1050 W WALK RD,35.052284,-90.097855,"35.052284, -90.097855"
0 RAINES E.,35.03473,-90.063509,"35.03473, -90.063509"
0 FELTON,35.209893,-89.946591,"35.209893, -89.946591"
3904 OLD ALLEN,35.23231871,-89.94843502,"35.23231871, -89.94843502"
363 LUCY AVE,35.11397,-90.05015,"35.11397, -90.05015"
0 LEWIS ST,35.169011,-90.019084,"35.169011, -90.019084"
2399 E DEXTER AVE,35.167929,-89.977287,"35.167929, -89.977287"
3004 CALVERT,35.179777,-89.96001,"35.179777, -89.96001"
1470 ORR,35.17248,-89.954483,"35.172480, -89.954483"
0 FAIROAKS,35.167569,-89.941863,"35.167569, -89.941863"
0 LYCEUM,35.096271,-90.014444,"35.096271, -90.014444"
0 PINEDALE AVE,35.205355,-90.00222,"35.205355, -90.00222"
3062 PARKER RD,35.06523,-90.08184,"35.06523, -90.08184"
930 NORA RD,35.05362,-90.095001,"35.05362, -90.095001"
639 WHITEHAVEN,35.01624823,-90.04269746,"35.01624823, -90.04269746"
948 E TRIGG,35.112057,-90.031074,"35.112057, -90.031074"
576 CAMBRIDGE,35.113326,-90.042956,"35.113326, -90.042956"
1068 ATLANTIC,35.161432,-89.951799,"35.161432, -89.951799"
1712 OAKWOOD ST,35.182875,-89.975999,"35.182875, -89.975999"
1394 STANDRIDGE,35.174016,-89.971593,"35.174016, -89.971593"
1556 DUNMOOR,35.102692,-89.968662,"35.102692, -89.968662"
2768 JOLSON,35.08236,-89.97021,"35.08236, -89.97021"
0 RUGBY PL,35.206197,-90.001068,"35.206197, -90.001068"
687 W PEEBLES RD,35.066805,-90.087072,"35.066805, -90.087072"
3890 OLD ALLEN RD,35.231864,-89.948476,"35.231864, -89.948476"
0 SMITH,35.17450797,-90.01644363,"35.17450797, -90.01644363"
601 WELLS AVE,35.17084,-90.036772,"35.170840, -90.036772"
675 E LUCY,35.11294174,-90.03960732,"35.11294174, -90.03960732"
1325 E TRIGG,35.111327,-90.018137,"35.111327, -90.018137"
1107 WALK PL,35.116367,-90.020769,"35.116367, -90.020769"
ZANONE AVE,35.111322,-89.987977,"35.111322, -89.987977"
199 W SILVERAGE AVE,35.098886,-90.069428,"35.098886, -90.069428"
1575 S THIRD ST,35.104307,-90.055779,"35.104307, -90.055779"
1519 OAKWOOD,35.177586,-89.97684,"35.177586, -89.97684"
0 SHASTA,35.169151,-89.980685,"35.169151, -89.980685"
2398 DEVOY AVE,35.16516,-89.977439,"35.165160, -89.977439"
1629 ORR,35.17700001,-89.95487065,"35.17700001, -89.95487065"
1514 BROOKINS,35.173765,-89.955385,"35.173765, -89.955385"
1629 S COOPER,35.101078,-89.992993,"35.101078, -89.992993"
2050 SWIFT,35.091662,-90.073371,"35.091662, -90.073371"
112 W TEMPLE,35.09035,-90.066665,"35.09035, -90.066665"
2211 CHARJEAN RD,35.084902,-89.983414,"35.084902, -89.983414"
0 W PERRY,35.074249,-90.011307,"35.074249, -90.011307"
0 W MARIGOLD LN,35.025371,-90.09646,"35.025371, -90.096460"
1313 W MITCHELL RD,35.056238,-90.107991,"35.056238, -90.107991"
0 E TRIGG AVE,35.111259,-90.016234,"35.111259, -90.016234"
1051 ATLANTIC,35.160957,-89.952483,"35.160957, -89.952483"
1531 LOCUST,35.174273,-89.957788,"35.174273, -89.957788"
0 CARLTON RD,35.07585,-90.0217,"35.07585, -90.0217"
0 RUGBY PL,35.20621,-90.00157,"35.20621, -90.00157"
0 TRAVIS,35.06613,-90.0833,"35.06613, -90.0833"
0 PITTMAN,35.01704,-90.1159,"35.01704, -90.1159"
424 E LUCY,35.114333,-90.048151,"35.114333, -90.048151"
1198 LATHAM ST,35.114697,-90.052191,"35.114697, -90.052191"
131 BILLIGAN ALY,35.109665,-90.057744,"35.109665, -90.057744"
778 HANLEY,35.110951,-89.976771,"35.110951, -89.976771"
0 E SNOWDEN AVE,35.157421,-90.011743,"35.157421, -90.011743"
2502 E WINNONA AVE,35.166773,-89.973921,"35.166773, -89.973921"
0 FAIROAKS,35.167391,-89.941408,"35.167391, -89.941408"
2160 WABASH AVE,35.101839,-89.990853,"35.101839, -89.990853"
2714 FILMORE,35.09239,-89.972519,"35.09239, -89.972519"
508 S LONGVIEW BLVD,35.090959,-90.046197,"35.090959, -90.046197"
2237 PENDLETON,35.084131,-89.972076,"35.084131, -89.972076"
1343 MISSISSIPPI BLVD,35.110379,-90.034895,"35.110379, -90.034895"
782 RICHMOND,35.111349,-90.036341,"35.111349, -90.036341"
1301 ENGLEWOOD ST,35.111088,-90.026231,"35.111088, -90.026231"
1071 AYERS,35.16958,-90.026731,"35.16958, -90.026731"
1801 CASTEX,35.098324,-90.070209,"35.098324, -90.070209"
2783 HARVARD,35.14426,-89.9685,"35.14426, -89.9685"
2097 HUNTER AVE,35.169289,-89.98738,"35.169289, -89.987380"
3042 MT OLIVE RD,35.175413,-89.958824,"35.175413, -89.958824"
1468 S RAYNER ST,35.106157,-90.011309,"35.106157, -90.011309"
0 PIDGEON ROOST,35.03617,-89.91626,"35.03617, -89.91626"
0 HORACE ST,35.108626,-90.059577,"35.108626, -90.059577"
585 SIMPSON,35.114748,-90.042803,"35.114748, -90.042803"
1071 GREENWOOD,35.11739,-90.02424,"35.11739, -90.02424"
1586 MICHIGAN,35.104001,-90.057052,"35.104001, -90.057052"
0 E PERSHING,35.154078,-89.954314,"35.154078, -89.954314"
883 KIPPLEY ST,35.156409,-89.957067,"35.156409, -89.957067"
0 N LOOSAHATCHIE RIVER,35.251805,-89.974548,"35.251805, -89.974548"
1968 PINEDALE,35.205874,-89.998058,"35.205874, -89.998058"
0 DELTA,35.017798,-90.077668,"35.017798, -90.077668"
1289 W MARGARET RD,35.007216,-90.106844,"35.007216, -90.106844"
0 PEGGY,35.21607023,-89.96237698,"35.21607023, -89.96237698"
0 BUFORD - (REAR),35.342179,-89.899443,"35.342179, -89.899443"
4443 JULIA CV,35.302792,-89.913783,"35.302792, -89.913783"
1005 MARBLE AVE,35.17222,-90.023399,"35.17222, -90.023399"
0 MANILA,35.117252,-89.996355,"35.117252, -89.996355"
1521 VICTOR ST,35.10541,-90.03831,"35.10541, -90.03831"
105 INGLE,35.10016199,-90.06623949,"35.10016199, -90.06623949"
213 W NORWOOD AVE,35.091383,-90.069995,"35.091383, -90.069995"
0 WHITEHAVEN LN,35.016555,-90.040469,"35.016555, -90.040469"
927 WALKER AVE,35.119008,-90.031202,"35.119008, -90.031202"
0 HORACE ST,35.111915,-90.059778,"35.111915, -90.059778"
981 E TRIGG AVE,35.111554,-90.029651,"35.111554, -90.029651"
1331 ORGILL AVE,35.111971,-90.017803,"35.111971, -90.017803"
1585 S ELY ST,35.103793,-90.042269,"35.103793, -90.042269"
129 W KIRK,35.099499,-90.067067,"35.099499, -90.067067"
2383 HUBBARD AVE,35.17349,-89.97767,"35.17349, -89.97767"
916 SEMMES ST,35.107006,-89.961176,"35.107006, -89.961176"
1017 ETHEL ST,35.107588,-89.98358,"35.107588, -89.98358"
2923 LAREDO ST,35.204975,-90.026341,"35.204975, -90.026341"
2651 DAKAR AVE,35.244287,-89.975264,"35.244287, -89.975264"
829 W HARAHAN RD,35.062557,-90.091818,"35.062557, -90.091818"
1307 YAZOO,35.111711,-90.05883,"35.111711, -90.058830"
1180 AZALIA,35.11471,-90.02869,"35.11471, -90.02869"
1894 BENFORD,35.09589,-90.07234,"35.09589, -90.07234"
132 INGLE,35.100578,-90.067018,"35.100578, -90.067018"
1586 S MICHIGAN ST,35.104001,-90.057052,"35.104001, -90.057052"
205 FAIRVIEW DR,35.08785,-90.0698,"35.08785, -90.0698"
205 FAIRVIEW,35.08785,-90.0698,"35.08785, -90.0698"
0 MCRAE,35.075079,-90.004758,"35.075079, -90.004758"
0 CORNING,35.22513398,-89.99207923,"35.22513398, -89.99207923"
4506 S BLUEBELL ST,35.02564,-90.095652,"35.025640, -90.095652"
0 BENT TREE,35.15601487,-89.8391423,"35.15601487, -89.8391423"
0 KIRBY PKWY,35.03403,-89.84847,"35.03403, -89.84847"
0 DAISY,35.169052,-90.017848,"35.169052, -90.017848"
22 W LUCCA,35.103106,-90.063352,"35.103106, -90.063352"
0 PATTON ST,35.104108,-90.054153,"35.104108, -90.054153"
3271 GIVEN AVE,35.15706,-89.95166,"35.15706, -89.95166"
1602 TREZEVANT,35.179912,-89.979462,"35.179912, -89.979462"
1607 WARFORD ST,35.176449,-89.962469,"35.176449, -89.962469"
1879 E CASTALIA ST,35.093907,-89.995454,"35.093907, -89.995454"
4475 SUNNY VIEW DR,35.247832,-89.980281,"35.247832, -89.980281"
3854 VOLTAIRE,35.23992261,-89.93501108,"35.23992261, -89.93501108"
0 YAZOO ALY,35.111419,-90.058838,"35.111419, -90.058838"
1295 CUMMINGS ST,35.111344,-90.027922,"35.111344, -90.027922"
1238 DUNNAVANT ST,35.11268,-90.01513,"35.11268, -90.01513"
1307 RICHMOND,35.11009,-90.018829,"35.11009, -90.018829"
1652 CLANCY,35.101678,-90.032239,"35.101678, -90.032239"
174 E PRETORIA,35.096598,-90.068663,"35.096598, -90.068663"
176 INGLE AVE,35.10073,-90.06853,"35.10073, -90.06853"
1575 S THIRD ST,35.104306,-90.055778,"35.104306, -90.055778"
162 W FRANK,35.09103,-90.06831,"35.09103, -90.06831"
40 E NORWOOD AVE,35.0919,-90.061539,"35.091900, -90.061539"
1410 ELLISTON RD,35.087783,-90.015901,"35.087783, -90.015901"
0 VISTA DR,35.07812,-90.00322,"35.07812, -90.00322"
1816 S BARKSDALE,35.095541,-89.999187,"35.095541, -89.999187"
1763 WILLOW WOOD,35.212034,-90.005068,"35.212034, -90.005068"
3484 N WATKINS ST,35.220646,-90.002898,"35.220646, -90.002898"
0 GILLEAS,35.062052,-90.089326,"35.062052, -90.089326"
0 FARRIS RD,35.0177,-90.040378,"35.0177, -90.040378"
4549 WHITE OWL LN,35.250333,-89.933479,"35.250333, -89.933479"
5186 BITTER CREEK DR,35.267482,-90.036738,"35.267482, -90.036738"
740 ROANOKE AVE,35.110307,-90.037745,"35.110307, -90.037745"
1394 GREENWOOD,35.10855,-90.02415,"35.10855, -90.02415"
308 W INGLE AVE,35.100827,-90.072895,"35.100827, -90.072895"
2270 DEVOY - (REAR),35.165852,-89.981753,"35.165852, -89.981753"
1655 CARPENTER ST,35.17779,-89.963283,"35.177790, -89.963283"
0 BAINE,35.08422,-89.94116,"35.08422, -89.94116"
3101 HILLIS,35.210212,-90.034477,"35.210212, -90.034477"
3011 BIRCHDALE DR,35.207579,-90.002759,"35.207579, -90.002759"
664 W HARAHAN,35.06300791,-90.08615408,"35.06300791, -90.08615408"
0 STAGE,35.205097,-89.854399,"35.205097, -89.854399"
828 ALMA ST,35.161526,-90.015168,"35.161526, -90.015168"
1381 KENTUCKY,35.10966,-90.063692,"35.10966, -90.063692"
1608 PENNSYLVANIA,35.103716,-90.067177,"35.103716, -90.067177"
1498 PATTON ST,35.106495,-90.053642,"35.106495, -90.053642"
2134 CURRY AVE,35.180298,-89.985697,"35.180298, -89.985697"
1620 CARPENTER,35.176808,-89.962847,"35.176808, -89.962847"
0 GOFF,35.10151,-89.99087,"35.10151, -89.99087"
2641 PERSHING,35.153838,-89.970311,"35.153838, -89.970311"
3205 BARRON AVE,35.099523,-89.955686,"35.099523, -89.955686"
2535 W BALL,35.075928,-90.033979,"35.075928, -90.033979"
0 MT TERRACE ST,35.23476,-89.98202,"35.23476, -89.98202"
3921 LILLIAN CV.,35.041598,-90.073731,"35.041598, -90.073731"
811 E EDITH,35.11652112,-90.03508951,"35.11652112, -90.03508951"
937 CROCKETT ST,35.165114,-90.021068,"35.165114, -90.021068"
1170 JAMES ST,35.114765,-90.022695,"35.114765, -90.022695"
729 CELLA ST,35.112314,-89.978882,"35.112314, -89.978882"
1499 S MCMILLAN,35.10614088,-90.04282807,"35.10614088, -90.04282807"
1482 MILLER,35.106569,-90.04099,"35.106569, -90.04099"
152 W DISON,35.101302,-90.067626,"35.101302, -90.067626"
1532 S THIRD,35.105643,-90.055144,"35.105643, -90.055144"
2328 MARBLE,35.171402,-89.979564,"35.171402, -89.979564"
694 LIPFORD ST,35.15136,-89.96294,"35.15136, -89.96294"
3704 GILLIE ST,35.2268,-90.00413,"35.2268, -90.00413"
4440 BEACON HILL DR,35.246959,-89.977291,"35.246959, -89.977291"
0 EVERS,35.049928,-90.090397,"35.049928, -90.090397"
0 REESE LAKE CIR.,35.196741,-89.829465,"35.196741, -89.829465"
0 BRIDGEWATER,35.171564,-89.817891,"35.171564, -89.817891"
0 BRUCE ST,35.109787,-89.986674,"35.109787, -89.986674"
2355 GOLDEN,35.172753,-89.978647,"35.172753, -89.978647"
0 BROWN,35.165901,-89.983014,"35.165901, -89.983014"
2296 BOYLE,35.098692,-89.986579,"35.098692, -89.986579"
2625 DUNN AVE,35.090867,-89.975649,"35.090867, -89.975649"
3101 HILLIS ST,35.210206,-90.034471,"35.210206, -90.034471"
1905 DRIFTWOOD AVE,35.209869,-90.000318,"35.209869, -90.000318"
4278 EMERSON CV,35.242771,-89.938349,"35.242771, -89.938349"
0 NORTHAVEN,35.25912847,-90.04086381,"35.25912847, -90.04086381"
295 E WALDORF,35.1053,-90.052374,"35.1053, -90.052374"
1486 MILLER ST,35.106439,-90.041129,"35.106439, -90.041129"
1616 MICHIGAN,35.103271,-90.057079,"35.103271, -90.057079"
0 STONEWALL,35.16821045,-90.00751773,"35.16821045, -90.00751773"
2291 ELDRIDGE AVE,35.170172,-89.980882,"35.170172, -89.980882"
2160 WABASH,35.101839,-89.990853,"35.101839, -89.990853"
2119 S FARRINGTON ST,35.089758,-90.074791,"35.089758, -90.074791"
156 E NORWOOD AVE,35.091833,-90.057655,"35.091833, -90.057655"
0 NEW WILLOW,35.085755,-89.926111,"35.085755, -89.926111"
0 MARSH,35.211592,-90.040298,"35.211592, -90.040298"
0 KEEL,35.161922,-90.025221,"35.161922, -90.025221"
1295 CUMMINGS,35.111351,-90.027928,"35.111351, -90.027928"
1526 PRESTON,35.10558,-90.050129,"35.10558, -90.050129"
1091 E BAMMEL AVE,35.177339,-90.020424,"35.177339, -90.020424"
0 E ELDRIDGE AVE,35.170275,-89.982791,"35.170275, -89.982791"
1629 ASH,35.17686908,-89.95393039,"35.17686908, -89.95393039"
1486 WILLIS,35.17294,-89.95258,"35.17294, -89.95258"
167 W FRANK AVE,35.090686,-90.068443,"35.090686, -90.068443"
1611 ONTARIO AVE,35.197775,-90.010093,"35.197775, -90.010093"
3101 WOODROW ST,35.210269,-89.993114,"35.210269, -89.993114"
3015 S GREEN RD,35.066447,-90.085426,"35.066447, -90.085426"
4389 HWY 61,35.028624,-90.081408,"35.028624, -90.081408"
0 HONDURAS AVE,35.014706,-90.075266,"35.014706, -90.075266"
594 HONDURAS AVE,35.01461,-90.083945,"35.01461, -90.083945"
0 N LAMBERT ST,35.175477,-89.982667,"35.175477, -89.982667"
0 POPE,35.176948,-89.956737,"35.176948, -89.956737"
1593 ORR ST,35.175998,-89.954907,"35.175998, -89.954907"
0 HOLLAND W.,35.09289,-90.07155,"35.09289, -90.07155"
0 MEAGHER,35.160926,-89.972258,"35.160926, -89.972258"
0 DRAKE,35.080269,-90.024249,"35.080269, -90.024249"
2341 SARATOGA AVE,35.109015,-89.984401,"35.109015, -89.984401"
3584 DUMAS,35.223553,-90.037654,"35.223553, -90.037654"
0 DENVER RD,35.214806,-89.995275,"35.214806, -89.995275"
1383 W BREAMHAVEN CV,35.011997,-90.11073,"35.011997, -90.11073"
0 PIONEER ST,35.113338,-90.071374,"35.113338, -90.071374"
577 ALSTON,35.122938,-90.04272,"35.122938, -90.04272"
1728 S RIVERSIDE,35.10054,-90.075254,"35.10054, -90.075254"
275 E BURDOCK AVE,35.106102,-90.053333,"35.106102, -90.053333"
283 W ESSEX AVE,35.103732,-90.052968,"35.103732, -90.052968"
1286 N DECATUR ST,35.17516,-90.02296,"35.17516, -90.02296"
1465 DAVIS ST,35.176523,-89.989207,"35.176523, -89.989207"
2924 MT OLIVE RD,35.175463,-89.962773,"35.175463, -89.962773"
2390 PECAN CL,35.082121,-89.983295,"35.082121, -89.983295"
0 DALTON RD,35.020273,-90.048347,"35.020273, -90.048347"
1044 WALK,35.11811034,-90.02014846,"35.11811034, -90.02014846"
1504 S MCMILLAN ST,35.105999,-90.042315,"35.105999, -90.042315"
1035 ROSEWOOD,35.094764,-90.028294,"35.094764, -90.028294"
111 W DOVE AVE,35.103296,-90.058843,"35.103296, -90.058843"
0 N STANDRIDGE ST,35.172778,-89.971625,"35.172778, -89.971625"
1602 WILSON ST,35.1027,-90.01834,"35.1027, -90.01834"
0 W HOLLAND AVE,35.09313,-90.07137,"35.09313, -90.07137"
971 E ALCY,35.075731,-90.030298,"35.075731, -90.030298"
0 S VASSAR,35.075426,-90.029217,"35.075426, -90.029217"
1611 ONTARIO,35.19777542,-90.01009322,"35.19777542, -90.01009322"
1606 VICTOR,35.10318,-90.03779,"35.10318, -90.03779"
1779 ELDRIDGE,35.170619,-89.998019,"35.170619, -89.998019"
2070 RILE,35.091139,-90.075095,"35.091139, -90.075095"
111 E DEMPSTER AVE,35.085299,-90.059293,"35.085299, -90.059293"
2273 MAIN S.,35.08513,-90.05858,"35.08513, -90.05858"
0 DRAKE,35.080269,-90.024249,"35.080269, -90.024249"
2785 BEECHMONT ST,35.201812,-90.003642,"35.201812, -90.003642"
4581 SUNNYBROOK DR,35.25083,-89.97701,"35.25083, -89.97701"
2414 SMITH RIDGE,35.247593,-89.983136,"35.247593, -89.983136"
2978 ELBERT DR,35.229222,-89.964477,"35.229222, -89.964477"
0 TCHULAHOMA,35.024431,-89.953678,"35.024431, -89.953678"
4759 SOUTHAVEN,35.01858884,-90.08551872,"35.01858884, -90.08551872"
1187 S MARGARET,35.00969387,-90.10322186,"35.00969387, -90.10322186"
3420 ALLEN RD,35.219149,-89.946037,"35.219149, -89.946037"
895 FERRY CT,35.11832,-90.03225,"35.11832, -90.03225"
0 SOMERVILLE,35.117589,-90.026308,"35.117589, -90.026308"
43 SHADY,35.116936,-90.014818,"35.116936, -90.014818"
1415 BELLEVUE ST,35.17829,-90.017691,"35.178290, -90.017691"
2408 HUNTER,35.169772,-89.976981,"35.169772, -89.976981"
2363 VANDALE,35.167234,-89.978525,"35.167234, -89.978525"
1414 SILVER ST,35.107735,-90.012173,"35.107735, -90.012173"
2918 N HARRIS CIR,35.091594,-89.962923,"35.091594, -89.962923"
3073 ST KITTS,35.209434,-89.995005,"35.209434, -89.995005"
574 KING RD,35.060939,-90.083162,"35.060939, -90.083162"
3921 LILLIAN CV,35.041591,-90.073725,"35.041591, -90.073725"
3890 OLD ALLEN,35.23186419,-89.94847583,"35.23186419, -89.94847583"
296 S PARKWAY,35.107875,-90.052635,"35.107875, -90.052635"
231 W UTAH AVE,35.113284,-90.070062,"35.113284, -90.070062"
596 WICKS,35.121512,-90.042037,"35.121512, -90.042037"
493 E OLIVE AVE,35.109945,-90.045929,"35.109945, -90.045929"
0 DOW PL,35.113455,-90.016156,"35.113455, -90.016156"
1287 PHILADELPHIA ST,35.11024,-89.98768,"35.11024, -89.98768"
1649 S CLANCY ST,35.10168,-90.03284,"35.10168, -90.03284"
2266 HUNTER AVE,35.16987,-89.98176,"35.16987, -89.98176"
2080 GOFF AVE,35.10117,-89.993546,"35.10117, -89.993546"
1442 SOUTH ST,35.103206,-90.014578,"35.103206, -90.014578"
2382 BROOKLYN AVE,35.11001,-89.9828,"35.11001, -89.9828"
0 SIMPSON,35.114987,-90.057779,"35.114987, -90.057779"
1320 GLENN,35.111036,-90.044909,"35.111036, -90.044909"
0 S COLLEGE ST,35.111248,-90.029833,"35.111248, -90.029833"
1009 S SEATTLE ST,35.11824,-90.002842,"35.118240, -90.002842"
1566 LATHAM ST,35.10446,-90.051325,"35.104460, -90.051325"
1651 S ELY,35.101939,-90.042354,"35.101939, -90.042354"
1903 RILE ST,35.095702,-90.075394,"35.095702, -90.075394"
1665 BARTON,35.101856,-90.056741,"35.101856, -90.056741"
996 MOREHEAD ST,35.177979,-90.023907,"35.177979, -90.023907"
0 DEVOY AVE,35.164744,-89.978371,"35.164744, -89.978371"
1484 SUNSET,35.17296,-89.95914,"35.17296, -89.95914"
1495 GILL AVE,35.107293,-90.012679,"35.107293, -90.012679"
1529 ELLISTON RD,35.087211,-90.011918,"35.087211, -90.011918"
2357 ENTERPRISE,35.107533,-89.984015,"35.107533, -89.984015"
2761 OVERTON CROSSING ST,35.20092,-90.00162,"35.20092, -90.00162"
2973 N ROLLING WOODS DR,35.206696,-89.946052,"35.206696, -89.946052"
1168 COPPOCK ST,35.171676,-90.022191,"35.171676, -90.022191"
0 S MCLEAN AVE,35.106474,-90.002944,"35.106474, -90.002944"
626 E PERSON,35.101342,-90.041755,"35.101342, -90.041755"
1479 S GABAY,35.10662,-90.039809,"35.10662, -90.039809"
0 WICHITA AVE,35.09803,-90.02903,"35.09803, -90.02903"
1644 S THIRD ST,35.102402,-90.055248,"35.102402, -90.055248"
2195 CLARKSDALE,35.177413,-89.983806,"35.177413, -89.983806"
1697 OAKWOOD,35.18248513,-89.97667682,"35.18248513, -89.97667682"
1337 ETHEL ST,35.105892,-89.983652,"35.105892, -89.983652"
0 S NORMA RD,35.00323,-90.103774,"35.00323, -90.103774"
0 PITTMAN,35.01704,-90.11555,"35.01704, -90.11555"
2390 HUNTER AVE,35.16978,-89.97751,"35.16978, -89.97751"
944 ALICE AVE,35.09451,-90.031412,"35.09451, -90.031412"
2756 SEAFORTH CV,35.21913,-89.97196,"35.21913, -89.97196"
3926 SCHOOLFIELD RD,35.232722,-89.968253,"35.232722, -89.968253"
0 WALKER,35.119895,-90.048018,"35.119895, -90.048018"
1033 E TRIGG AVE,35.111525,-90.028011,"35.111525, -90.028011"
